{"type":"FeatureCollection","meta":{"filter":"large_airport with IATA","generated":"2026-06-06","source":"OurAirports (ourairports.com)","count":1175},"features":[{"type":"Feature","geometry":{"coordinates":[33.827964,31.055324],"type":"Point"},"properties":{"country":"EG","city":"El Arish","icao":"HEAR","name":"El Arish International Airport","iata":"AAC"}},{"type":"Feature","geometry":{"coordinates":[7.81334,36.826781],"type":"Point"},"properties":{"country":"DZ","city":"Annaba","icao":"DABB","name":"Annaba Rabah Bitat Airport","iata":"AAE"}},{"type":"Feature","geometry":{"coordinates":[9.84993,57.094763],"type":"Point"},"properties":{"country":"DK","city":"Aalborg","icao":"EKYT","name":"Aalborg Airport","iata":"AAL"}},{"type":"Feature","geometry":{"coordinates":[55.6092,24.2617],"type":"Point"},"properties":{"country":"AE","city":"Al Ain","icao":"OMAL","name":"Al Ain International Airport","iata":"AAN"}},{"type":"Feature","geometry":{"coordinates":[10.618286,56.303331],"type":"Point"},"properties":{"country":"DK","city":"Aarhus","icao":"EKAH","name":"Aarhus Airport","iata":"AAR"}},{"type":"Feature","geometry":{"coordinates":[91.385002,53.740002],"type":"Point"},"properties":{"country":"RU","city":"Abakan","icao":"UNAA","name":"Abakan International Airport","iata":"ABA"}},{"type":"Feature","geometry":{"coordinates":[6.665278,6.204167],"type":"Point"},"properties":{"country":"NG","city":"Asaba","icao":"DNAS","name":"Asaba International Airport","iata":"ABB"}},{"type":"Feature","geometry":{"coordinates":[48.230075,30.367887],"type":"Point"},"properties":{"country":"IR","city":"Abadan","icao":"OIAA","name":"Abadan Ayatollah Jami International Airport","iata":"ABD"}},{"type":"Feature","geometry":{"coordinates":[-3.92629,5.26139],"type":"Point"},"properties":{"country":"CI","city":"Abidjan","icao":"DIAP","name":"Félix-Houphouët-Boigny International Airport","iata":"ABJ"}},{"type":"Feature","geometry":{"coordinates":[-106.608925,35.039976],"type":"Point"},"properties":{"country":"US","city":"Albuquerque","icao":"KABQ","name":"Albuquerque International Sunport","iata":"ABQ"}},{"type":"Feature","geometry":{"coordinates":[7.26317,9.00679],"type":"Point"},"properties":{"country":"NG","city":"Abuja","icao":"DNAA","name":"Nnamdi Azikiwe International Airport","iata":"ABV"}},{"type":"Feature","geometry":{"coordinates":[-2.19778,57.2019],"type":"Point"},"properties":{"country":"GB","city":"Aberdeen","icao":"EGPD","name":"Aberdeen International Airport","iata":"ABZ"}},{"type":"Feature","geometry":{"coordinates":[-99.753113,16.757126],"type":"Point"},"properties":{"country":"MX","city":"Acapulco","icao":"MMAA","name":"General Juan N. Álvarez International Airport","iata":"ACA"}},{"type":"Feature","geometry":{"coordinates":[-0.16678600013256073,5.6051898002624512],"type":"Point"},"properties":{"country":"GH","city":"Accra","icao":"DGAA","name":"Kotoka International Airport","iata":"ACC"}},{"type":"Feature","geometry":{"coordinates":[-13.6052,28.945499],"type":"Point"},"properties":{"country":"ES","city":"San Bartolomé","icao":"GCRR","name":"César Manrique-Lanzarote Airport","iata":"ACE"}},{"type":"Feature","geometry":{"coordinates":[35.280399,36.982201],"type":"Point"},"properties":{"country":"TR","city":"Seyhan","icao":"LTAF","name":"Adana Şakirpaşa Airport","iata":"ADA"}},{"type":"Feature","geometry":{"coordinates":[27.157,38.2924],"type":"Point"},"properties":{"country":"TR","city":"Gaziemir","icao":"LTBJ","name":"Adnan Menderes International Airport","iata":"ADB"}},{"type":"Feature","geometry":{"coordinates":[38.799301,8.97789],"type":"Point"},"properties":{"country":"ET","city":"Addis Ababa","icao":"HAAB","name":"Addis Ababa Bole International Airport","iata":"ADD"}},{"type":"Feature","geometry":{"coordinates":[45.029976,12.829564],"type":"Point"},"properties":{"country":"YE","city":"Aden","icao":"OYAA","name":"Aden International Airport","iata":"ADE"}},{"type":"Feature","geometry":{"coordinates":[35.9916,31.9727],"type":"Point"},"properties":{"country":"JO","city":"Amman","icao":"OJAM","name":"Marka International (Amman Civil) Airport","iata":"ADJ"}},{"type":"Feature","geometry":{"coordinates":[138.533393,-34.947512],"type":"Point"},"properties":{"country":"AU","city":"Adelaide","icao":"YPAD","name":"Adelaide International Airport","iata":"ADL"}},{"type":"Feature","geometry":{"coordinates":[-81.7112,12.5836],"type":"Point"},"properties":{"country":"CO","city":"San Andrés","icao":"SKSP","name":"Gustavo Rojas Pinilla International Airport","iata":"ADZ"}},{"type":"Feature","geometry":{"coordinates":[-58.415536,-34.559419],"type":"Point"},"properties":{"country":"AR","city":"Buenos Aires","icao":"SABE","name":"Aeroparque Jorge Newbery","iata":"AEP"}},{"type":"Feature","geometry":{"coordinates":[39.9566,43.449902],"type":"Point"},"properties":{"country":"RU","city":"Sochi","icao":"URSS","name":"Sochi International Airport","iata":"AER"}},{"type":"Feature","geometry":{"coordinates":[6.110845,62.560443],"type":"Point"},"properties":{"country":"NO","city":"Ålesund","icao":"ENAL","name":"Ålesund Airport","iata":"AES"}},{"type":"Feature","geometry":{"coordinates":[-18.072018,65.656573],"type":"Point"},"properties":{"country":"IS","city":"Akureyri","icao":"BIAR","name":"Akureyri International Airport","iata":"AEY"}},{"type":"Feature","geometry":{"coordinates":[-9.412003,30.322478],"type":"Point"},"properties":{"country":"MA","city":"Agadir (Temsia)","icao":"GMAD","name":"Al Massira Airport","iata":"AGA"}},{"type":"Feature","geometry":{"coordinates":[-4.49911,36.6749],"type":"Point"},"properties":{"country":"ES","city":"Málaga","icao":"LEMG","name":"Málaga-Costa del Sol Airport","iata":"AGP"}},{"type":"Feature","geometry":{"coordinates":[-54.839544,-25.457186],"type":"Point"},"properties":{"country":"PY","city":"Ciudad del Este","icao":"SGES","name":"Guaraní International Airport","iata":"AGT"}},{"type":"Feature","geometry":{"coordinates":[-102.318372,21.699589],"type":"Point"},"properties":{"country":"MX","city":"Aguascalientes","icao":"MMAS","name":"Aguascalientes International Airport","iata":"AGU"}},{"type":"Feature","geometry":{"coordinates":[42.656601,18.2404],"type":"Point"},"properties":{"country":"SA","city":"Abha","icao":"OEAB","name":"Abha International Airport","iata":"AHB"}},{"type":"Feature","geometry":{"coordinates":[40.100905,29.783301],"type":"Point"},"properties":{"country":"SA","city":"Al-Jawf","icao":"OESK","name":"Al-Jawf International Airport","iata":"AJF"}},{"type":"Feature","geometry":{"coordinates":[174.786331,-37.01199],"type":"Point"},"properties":{"country":"NZ","city":"Auckland","icao":"NZAA","name":"Auckland International Airport","iata":"AKL"}},{"type":"Feature","geometry":{"coordinates":[57.204144,50.248116],"type":"Point"},"properties":{"country":"KZ","city":"Aktobe","icao":"UATT","name":"Aktobe International Airport","iata":"AKX"}},{"type":"Feature","geometry":{"coordinates":[77.042828,43.354267],"type":"Point"},"properties":{"country":"KZ","city":"Almaty","icao":"UAAA","name":"Almaty International Airport","iata":"ALA"}},{"type":"Feature","geometry":{"coordinates":[-73.801697,42.748299],"type":"Point"},"properties":{"country":"US","city":"Albany","icao":"KALB","name":"Albany International Airport","iata":"ALB"}},{"type":"Feature","geometry":{"coordinates":[-0.558156,38.2822],"type":"Point"},"properties":{"country":"ES","city":"Alicante","icao":"LEAL","name":"Alicante-Elche Miguel Hernández Airport","iata":"ALC"}},{"type":"Feature","geometry":{"coordinates":[3.214531,36.693886],"type":"Point"},"properties":{"country":"DZ","city":"Algiers","icao":"DAAG","name":"Houari Boumediene Airport","iata":"ALG"}},{"type":"Feature","geometry":{"coordinates":[37.226869,36.181262],"type":"Point"},"properties":{"country":"SY","city":"Aleppo","icao":"OSAP","name":"Aleppo International Airport","iata":"ALP"}},{"type":"Feature","geometry":{"coordinates":[72.634697,23.0772],"type":"Point"},"properties":{"country":"IN","city":"Ahmedabad","icao":"VAAH","name":"Sardar Vallabh Patel International Airport","iata":"AMD"}},{"type":"Feature","geometry":{"coordinates":[35.9931983948,31.7226009369],"type":"Point"},"properties":{"country":"JO","city":"Amman","icao":"OJAI","name":"Queen Alia International Airport","iata":"AMM"}},{"type":"Feature","geometry":{"coordinates":[128.089005,-3.71026],"type":"Point"},"properties":{"country":"ID","city":"Ambon","icao":"WAPP","name":"Pattimura International Airport","iata":"AMQ"}},{"type":"Feature","geometry":{"coordinates":[4.76389,52.308601],"type":"Point"},"properties":{"country":"NL","city":"Amsterdam","icao":"EHAM","name":"Amsterdam Airport Schiphol","iata":"AMS"}},{"type":"Feature","geometry":{"coordinates":[-149.992561,61.179004],"type":"Point"},"properties":{"country":"US","city":"Anchorage","icao":"PANC","name":"Ted Stevens Anchorage International Airport","iata":"ANC"}},{"type":"Feature","geometry":{"coordinates":[-70.445232,-23.445274],"type":"Point"},"properties":{"country":"CL","city":"Antofagasta","icao":"SCFA","name":"Andrés Sabella Gálvez International Airport","iata":"ANF"}},{"type":"Feature","geometry":{"coordinates":[-61.792702,17.1367],"type":"Point"},"properties":{"country":"AG","city":"Osbourn","icao":"TAPA","name":"V. C. Bird International Airport","iata":"ANU"}},{"type":"Feature","geometry":{"coordinates":[30.519268,39.811644],"type":"Point"},"properties":{"country":"TR","city":"Eskişehir","icao":"LTBY","name":"Hasan Polatkan Airport","iata":"AOE"}},{"type":"Feature","geometry":{"coordinates":[140.689477,40.733777],"type":"Point"},"properties":{"country":"JP","city":"Aomori","icao":"RJSA","name":"Aomori Airport","iata":"AOJ"}},{"type":"Feature","geometry":{"coordinates":[39.281799,-15.1056],"type":"Point"},"properties":{"country":"MZ","city":"Nampula","icao":"FQNP","name":"Nampula Airport","iata":"APL"}},{"type":"Feature","geometry":{"coordinates":[-172.007996,-13.83],"type":"Point"},"properties":{"country":"WS","city":"Apia","icao":"NSFA","name":"Faleolo International Airport","iata":"APW"}},{"type":"Feature","geometry":{"coordinates":[46.127108,28.335726],"type":"Point"},"properties":{"country":"SA","city":"Qaisumah","icao":"OEPA","name":"Qaisumah–Hafar Al-Batin International Airport","iata":"AQI"}},{"type":"Feature","geometry":{"coordinates":[35.018101,29.611601],"type":"Point"},"properties":{"country":"JO","city":"Aqaba","icao":"OJAQ","name":"King Hussein International Airport","iata":"AQJ"}},{"type":"Feature","geometry":{"coordinates":[-71.569485,-16.340786],"type":"Point"},"properties":{"country":"PE","city":"Arequipa","icao":"SPQU","name":"Rodríguez Ballón International Airport","iata":"AQP"}},{"type":"Feature","geometry":{"coordinates":[17.928829,59.64849],"type":"Point"},"properties":{"country":"SE","city":"Stockholm","icao":"ESSA","name":"Stockholm-Arlanda Airport","iata":"ARN"}},{"type":"Feature","geometry":{"coordinates":[58.361,37.986801],"type":"Point"},"properties":{"country":"TM","city":"Ashgabat","icao":"UTAA","name":"Ashgabat International Airport","iata":"ASB"}},{"type":"Feature","geometry":{"coordinates":[48.010511,46.282843],"type":"Point"},"properties":{"country":"RU","city":"Astrakhan","icao":"URWA","name":"Astrakhan Narimanovo Boris M. Kustodiev International Airport","iata":"ASF"}},{"type":"Feature","geometry":{"coordinates":[-5.36558,6.90317],"type":"Point"},"properties":{"country":"CI","city":"Yamoussoukro","icao":"DIYO","name":"Yamoussoukro International Airport","iata":"ASK"}},{"type":"Feature","geometry":{"coordinates":[35.495399,38.770401],"type":"Point"},"properties":{"country":"TR","city":"Kayseri","icao":"LTAU","name":"Kayseri Erkilet International Airport","iata":"ASR"}},{"type":"Feature","geometry":{"coordinates":[-57.519227,-25.240156],"type":"Point"},"properties":{"country":"PY","city":"Asunción","icao":"SGAS","name":"Silvio Pettirossi International Airport","iata":"ASU"}},{"type":"Feature","geometry":{"coordinates":[32.820382,23.961075],"type":"Point"},"properties":{"country":"EG","city":"Aswan","icao":"HESN","name":"Aswan International Airport","iata":"ASW"}},{"type":"Feature","geometry":{"coordinates":[23.9445,37.936401],"type":"Point"},"properties":{"country":"GR","city":"Spata-Artemida","icao":"LGAV","name":"Athens Eleftherios Venizelos International Airport","iata":"ATH"}},{"type":"Feature","geometry":{"coordinates":[-84.428101,33.6367],"type":"Point"},"properties":{"country":"US","city":"Atlanta","icao":"KATL","name":"Hartsfield Jackson Atlanta International Airport","iata":"ATL"}},{"type":"Feature","geometry":{"coordinates":[74.797302,31.7096],"type":"Point"},"properties":{"country":"IN","city":"Amritsar","icao":"VIAR","name":"Sri Guru Ram Das Ji International Airport","iata":"ATQ"}},{"type":"Feature","geometry":{"coordinates":[31.01276,27.045962],"type":"Point"},"properties":{"country":"EG","city":"Asyut","icao":"HEAT","name":"Asyut International Airport","iata":"ATZ"}},{"type":"Feature","geometry":{"coordinates":[-70.014281,12.501056],"type":"Point"},"properties":{"country":"AW","city":"Oranjestad","icao":"TNCA","name":"Queen Beatrix International Airport","iata":"AUA"}},{"type":"Feature","geometry":{"coordinates":[54.649237,24.440966],"type":"Point"},"properties":{"country":"AE","city":"Abu Dhabi","icao":"OMAA","name":"Zayed International Airport","iata":"AUH"}},{"type":"Feature","geometry":{"coordinates":[-97.662015,30.197535],"type":"Point"},"properties":{"country":"US","city":"Austin","icao":"KAUS","name":"Austin Bergstrom International Airport","iata":"AUS"}},{"type":"Feature","geometry":{"coordinates":[144.467196,-38.040269],"type":"Point"},"properties":{"country":"AU","city":"Geelong/Melbourne","icao":"YMAV","name":"Melbourne Avalon International Airport","iata":"AVV"}},{"type":"Feature","geometry":{"coordinates":[38.396455,7.100611],"type":"Point"},"properties":{"country":"ET","city":"Hawassa","icao":"HALA","name":"Hawassa International Airport","iata":"AWA"}},{"type":"Feature","geometry":{"coordinates":[48.763789,31.3364],"type":"Point"},"properties":{"country":"IR","city":"Ahvaz","icao":"OIAW","name":"Qasem Soleimani International Airport","iata":"AWZ"}},{"type":"Feature","geometry":{"coordinates":[30.800501,36.898701],"type":"Point"},"properties":{"country":"TR","city":"Antalya","icao":"LTAI","name":"Antalya International Airport","iata":"AYT"}},{"type":"Feature","geometry":{"coordinates":[54.459866,24.427062],"type":"Point"},"properties":{"country":"AE","city":"Abu Dhabi","icao":"OMAD","name":"Al Bateen Executive Airport","iata":"AZI"}},{"type":"Feature","geometry":{"coordinates":[50.63764,26.267295],"type":"Point"},"properties":{"country":"BH","city":"Manama","icao":"OBBI","name":"Bahrain International Airport","iata":"BAH"}},{"type":"Feature","geometry":{"coordinates":[-74.7808,10.8896],"type":"Point"},"properties":{"country":"CO","city":"Barranquilla","icao":"SKBQ","name":"Ernesto Cortissoz International Airport","iata":"BAQ"}},{"type":"Feature","geometry":{"coordinates":[109.997002,40.560001],"type":"Point"},"properties":{"country":"CN","city":"Baotou","icao":"ZBOW","name":"Baotou Donghe International Airport","iata":"BAV"}},{"type":"Feature","geometry":{"coordinates":[83.539701,53.361285],"type":"Point"},"properties":{"country":"RU","city":"Barnaul","icao":"UNBB","name":"Barnaul Gherman Titov International Airport","iata":"BAX"}},{"type":"Feature","geometry":{"coordinates":[85.814747,20.251021],"type":"Point"},"properties":{"country":"IN","city":"Bhubaneswar","icao":"VEBS","name":"Biju Patnaik International Airport","iata":"BBI"}},{"type":"Feature","geometry":{"coordinates":[25.166195,-17.831653],"type":"Point"},"properties":{"country":"BW","city":"Kasane","icao":"FBKE","name":"Kasane International Airport","iata":"BBK"}},{"type":"Feature","geometry":{"coordinates":[26.102944,44.503133],"type":"Point"},"properties":{"country":"RO","city":"Bucharest","icao":"LRBS","name":"Bucharest Băneasa Aurel Vlaicu International Airport","iata":"BBU"}},{"type":"Feature","geometry":{"coordinates":[123.018879,10.776237],"type":"Point"},"properties":{"country":"PH","city":"Bacolod City","icao":"RPVB","name":"Bacolod-Silay International Airport","iata":"BCD"}},{"type":"Feature","geometry":{"coordinates":[26.910299,46.5219],"type":"Point"},"properties":{"country":"RO","city":"Bacău","icao":"LRBC","name":"Bacău George Enescu International  Airport","iata":"BCM"}},{"type":"Feature","geometry":{"coordinates":[2.07846,41.2971],"type":"Point"},"properties":{"country":"ES","city":"Barcelona","icao":"LEBL","name":"Josep Tarradellas Barcelona-El Prat Airport","iata":"BCN"}},{"type":"Feature","geometry":{"coordinates":[9.744,10.482833],"type":"Point"},"properties":{"country":"NG","city":"Bauchi","icao":"DNBC","name":"Sir Abubakar Tafawa Balewa Bauchi State International Airport","iata":"BCU"}},{"type":"Feature","geometry":{"coordinates":[-64.67824,32.363802],"type":"Point"},"properties":{"country":"BM","city":"Hamilton","icao":"TXKF","name":"L.F. Wade International Airport","iata":"BDA"}},{"type":"Feature","geometry":{"coordinates":[114.761209,-3.440112],"type":"Point"},"properties":{"country":"ID","city":"Banjarbaru","icao":"WAOO","name":"Syamsudin Noor International Airport","iata":"BDJ"}},{"type":"Feature","geometry":{"coordinates":[-72.688016,41.938555],"type":"Point"},"properties":{"country":"US","city":"Hartford","icao":"KBDL","name":"Bradley International Airport","iata":"BDL"}},{"type":"Feature","geometry":{"coordinates":[73.226303,22.336201],"type":"Point"},"properties":{"country":"IN","city":"Vadodara","icao":"VABO","name":"Vadodara International Airport","iata":"BDQ"}},{"type":"Feature","geometry":{"coordinates":[17.947001,40.6576],"type":"Point"},"properties":{"country":"IT","city":"Brindisi","icao":"LIBR","name":"Brindisi Airport","iata":"BDS"}},{"type":"Feature","geometry":{"coordinates":[20.309099,44.818401],"type":"Point"},"properties":{"country":"RS","city":"Belgrade","icao":"LYBE","name":"Belgrade Nikola Tesla Airport","iata":"BEG"}},{"type":"Feature","geometry":{"coordinates":[-48.476207,-1.379279],"type":"Point"},"properties":{"country":"BR","city":"Belém","icao":"SBBE","name":"Val de Cans/Júlio Cezar Ribeiro International Airport","iata":"BEL"}},{"type":"Feature","geometry":{"coordinates":[-6.315905,32.401895],"type":"Point"},"properties":{"country":"MA","city":"Oulad Yaich","icao":"GMMD","name":"Beni Mellal Airport","iata":"BEM"}},{"type":"Feature","geometry":{"coordinates":[20.269501,32.096802],"type":"Point"},"properties":{"country":"LY","city":"Benina","icao":"HLLB","name":"Benina International Airport","iata":"BEN"}},{"type":"Feature","geometry":{"coordinates":[13.502341,52.361738],"type":"Point"},"properties":{"country":"DE","city":"Berlin","icao":"EDDB","name":"Berlin Brandenburg Airport","iata":"BER"}},{"type":"Feature","geometry":{"coordinates":[-4.41854,48.447899],"type":"Point"},"properties":{"country":"FR","city":"Brest","icao":"LFRB","name":"Brest Bretagne airport","iata":"BES"}},{"type":"Feature","geometry":{"coordinates":[34.9076,-19.7964],"type":"Point"},"properties":{"country":"MZ","city":"Beira","icao":"FQBR","name":"Beira International Airport","iata":"BEW"}},{"type":"Feature","geometry":{"coordinates":[35.487443,33.819833],"type":"Point"},"properties":{"country":"LB","city":"Beirut","icao":"OLBA","name":"Beirut Rafic Hariri International Airport","iata":"BEY"}},{"type":"Feature","geometry":{"coordinates":[26.302401,-29.092699],"type":"Point"},"properties":{"country":"ZA","city":"Bloemfontein","icao":"FABL","name":"Bram Fischer International Airport","iata":"BFN"}},{"type":"Feature","geometry":{"coordinates":[-6.2158298492399995,54.6575012207],"type":"Point"},"properties":{"country":"GB","city":"Belfast","icao":"EGAA","name":"Belfast International Airport","iata":"BFS"}},{"type":"Feature","geometry":{"coordinates":[18.518801,4.39848],"type":"Point"},"properties":{"country":"CF","city":"Bangui","icao":"FEFF","name":"Bangui M\u0027Poko International Airport","iata":"BGF"}},{"type":"Feature","geometry":{"coordinates":[-59.491034,13.074667],"type":"Point"},"properties":{"country":"BB","city":"Bridgetown","icao":"TBPB","name":"Grantley Adams International Airport","iata":"BGI"}},{"type":"Feature","geometry":{"coordinates":[5.21814,60.2934],"type":"Point"},"properties":{"country":"NO","city":"Bergen","icao":"ENBR","name":"Bergen Airport, Flesland","iata":"BGO"}},{"type":"Feature","geometry":{"coordinates":[44.2346,33.262501],"type":"Point"},"properties":{"country":"IQ","city":"Baghdad","icao":"ORBI","name":"Baghdad International Airport / New Al Muthana Air Base","iata":"BGW"}},{"type":"Feature","geometry":{"coordinates":[9.708851,45.669362],"type":"Point"},"properties":{"country":"IT","city":"Orio al Serio (BG)","icao":"LIME","name":"Il Caravaggio International Airport","iata":"BGY"}},{"type":"Feature","geometry":{"coordinates":[64.482279,39.775319],"type":"Point"},"properties":{"country":"UZ","city":"Bukhara","icao":"UZSB","name":"Bukhara International Airport","iata":"BHK"}},{"type":"Feature","geometry":{"coordinates":[-86.750712,33.562877],"type":"Point"},"properties":{"country":"US","city":"Birmingham","icao":"KBHM","name":"Birmingham-Shuttlesworth International Airport","iata":"BHM"}},{"type":"Feature","geometry":{"coordinates":[77.337402,23.2875],"type":"Point"},"properties":{"country":"IN","city":"Bhopal","icao":"VABP","name":"Raja Bhoj International Airport","iata":"BHO"}},{"type":"Feature","geometry":{"coordinates":[-1.74803,52.453899],"type":"Point"},"properties":{"country":"GB","city":"Birmingham, West Midlands","icao":"EGBB","name":"Birmingham Airport","iata":"BHX"}},{"type":"Feature","geometry":{"coordinates":[9.48373,42.5527],"type":"Point"},"properties":{"country":"FR","city":"Bastia","icao":"LFKB","name":"Bastia-Poretta International airport","iata":"BIA"}},{"type":"Feature","geometry":{"coordinates":[-2.91061,43.301102],"type":"Point"},"properties":{"country":"ES","city":"Bilbao","icao":"LEBB","name":"Bilbao Airport","iata":"BIO"}},{"type":"Feature","geometry":{"coordinates":[5.069909,36.712547],"type":"Point"},"properties":{"country":"DZ","city":"Béjaïa","icao":"DAAE","name":"Soummam–Abane Ramdane Airport","iata":"BJA"}},{"type":"Feature","geometry":{"coordinates":[-16.652201,13.338],"type":"Point"},"properties":{"country":"GM","city":"Banjul (Yundum)","icao":"GBYD","name":"Banjul International Airport","iata":"BJL"}},{"type":"Feature","geometry":{"coordinates":[29.318501,-3.32402],"type":"Point"},"properties":{"country":"BI","city":"Bujumbura","icao":"HBBA","name":"Bujumbura Melchior Ndadaye International Airport","iata":"BJM"}},{"type":"Feature","geometry":{"coordinates":[27.66401,37.249314],"type":"Point"},"properties":{"country":"TR","city":"Bodrum","icao":"LTFE","name":"Milas Bodrum International Airport","iata":"BJV"}},{"type":"Feature","geometry":{"coordinates":[-101.480284,20.992695],"type":"Point"},"properties":{"country":"MX","city":"Silao","icao":"MMLO","name":"Guanajuato International Airport","iata":"BJX"}},{"type":"Feature","geometry":{"coordinates":[116.049324,5.932743],"type":"Point"},"properties":{"country":"MY","city":"Kota Kinabalu","icao":"WBKK","name":"Kota Kinabalu International Airport","iata":"BKI"}},{"type":"Feature","geometry":{"coordinates":[100.747002,13.6811],"type":"Point"},"properties":{"country":"TH","city":"Bangkok","icao":"VTBS","name":"Suvarnabhumi Airport","iata":"BKK"}},{"type":"Feature","geometry":{"coordinates":[-7.94994,12.5335],"type":"Point"},"properties":{"country":"ML","city":"Bamako","icao":"GABS","name":"Modibo Keita International Airport","iata":"BKO"}},{"type":"Feature","geometry":{"coordinates":[-64.692222,10.111111],"type":"Point"},"properties":{"country":"VE","city":"Barcelona","icao":"SVBC","name":"General José Antonio Anzoategui International Airport","iata":"BLA"}},{"type":"Feature","geometry":{"coordinates":[6.30859,35.752102],"type":"Point"},"properties":{"country":"DZ","city":"Batna","icao":"DABT","name":"Batna Mostefa Ben Boulaid Airport","iata":"BLJ"}},{"type":"Feature","geometry":{"coordinates":[9.157019,55.740335],"type":"Point"},"properties":{"country":"DK","city":"Billund","icao":"EKBI","name":"Billund Airport","iata":"BLL"}},{"type":"Feature","geometry":{"coordinates":[11.2887,44.5354],"type":"Point"},"properties":{"country":"IT","city":"Bologna","icao":"LIPE","name":"Bologna Guglielmo Marconi Airport","iata":"BLQ"}},{"type":"Feature","geometry":{"coordinates":[77.706299,13.1979],"type":"Point"},"properties":{"country":"IN","city":"Bengaluru","icao":"VOBL","name":"Kempegowda International Airport Bengaluru","iata":"BLR"}},{"type":"Feature","geometry":{"coordinates":[34.972319,-15.677189],"type":"Point"},"properties":{"country":"MW","city":"Blantyre","icao":"FWCL","name":"Chileka International Airport","iata":"BLZ"}},{"type":"Feature","geometry":{"coordinates":[122.2283,-17.949194],"type":"Point"},"properties":{"country":"AU","city":"Broome","icao":"YBRM","name":"Broome International Airport","iata":"BME"}},{"type":"Feature","geometry":{"coordinates":[-86.6782,36.1245],"type":"Point"},"properties":{"country":"US","city":"Nashville","icao":"KBNA","name":"Nashville International Airport","iata":"BNA"}},{"type":"Feature","geometry":{"coordinates":[56.3778,27.2183],"type":"Point"},"properties":{"country":"IR","city":"Bandar Abbas","icao":"OIKB","name":"Bandar Abbas International Airport","iata":"BND"}},{"type":"Feature","geometry":{"coordinates":[153.11700439453125,-27.384199142456055],"type":"Point"},"properties":{"country":"AU","city":"Brisbane","icao":"YBBN","name":"Brisbane International Airport","iata":"BNE"}},{"type":"Feature","geometry":{"coordinates":[17.297501,44.941399],"type":"Point"},"properties":{"country":"BA","city":"Mahovljani","icao":"LQBK","name":"Banja Luka International Airport","iata":"BNX"}},{"type":"Feature","geometry":{"coordinates":[-0.715356,44.82865],"type":"Point"},"properties":{"country":"FR","city":"Bordeaux","icao":"LFBD","name":"Bordeaux–Mérignac Airport","iata":"BOD"}},{"type":"Feature","geometry":{"coordinates":[-74.1469,4.70159],"type":"Point"},"properties":{"country":"CO","city":"Bogota","icao":"SKBO","name":"El Dorado International Airport","iata":"BOG"}},{"type":"Feature","geometry":{"coordinates":[-116.223,43.5644],"type":"Point"},"properties":{"country":"US","city":"Boise","icao":"KBOI","name":"Boise Air Terminal/Gowen Field","iata":"BOI"}},{"type":"Feature","geometry":{"coordinates":[27.515173,42.569917],"type":"Point"},"properties":{"country":"BG","city":"Burgas","icao":"LBBG","name":"Burgas Airport","iata":"BOJ"}},{"type":"Feature","geometry":{"coordinates":[72.867897,19.088699],"type":"Point"},"properties":{"country":"IN","city":"Mumbai","icao":"VABB","name":"Chhatrapati Shivaji Maharaj International Airport","iata":"BOM"}},{"type":"Feature","geometry":{"coordinates":[-68.268501,12.131],"type":"Point"},"properties":{"country":"BQ","city":"Kralendijk","icao":"TNCB","name":"Flamingo International Airport","iata":"BON"}},{"type":"Feature","geometry":{"coordinates":[14.3653,67.269203],"type":"Point"},"properties":{"country":"NO","city":"Bodø","icao":"ENBO","name":"Bodø Airport","iata":"BOO"}},{"type":"Feature","geometry":{"coordinates":[-71.0079,42.36197],"type":"Point"},"properties":{"country":"US","city":"Boston","icao":"KBOS","name":"Boston Logan International Airport","iata":"BOS"}},{"type":"Feature","geometry":{"coordinates":[-4.33097,11.1601],"type":"Point"},"properties":{"country":"BF","city":"Bobo Dioulasso","icao":"DFOO","name":"Bobo Dioulasso Airport","iata":"BOY"}},{"type":"Feature","geometry":{"coordinates":[116.89452,-1.268342],"type":"Point"},"properties":{"country":"ID","city":"Balikpapan","icao":"WALL","name":"Sultan Aji Muhammad Sulaiman Sepinggan International Airport","iata":"BPN"}},{"type":"Feature","geometry":{"coordinates":[-39.080584,-16.438426],"type":"Point"},"properties":{"country":"BR","city":"Porto Seguro","icao":"SBPS","name":"Porto Seguro International Airport","iata":"BPS"}},{"type":"Feature","geometry":{"coordinates":[23.89676,52.108138],"type":"Point"},"properties":{"country":"BY","city":"Brest","icao":"UMBB","name":"Brest International Airport","iata":"BQT"}},{"type":"Feature","geometry":{"coordinates":[-71.157501,-41.151199],"type":"Point"},"properties":{"country":"AR","city":"San Carlos de Bariloche","icao":"SAZS","name":"Teniente Luis Candelaria International Airport","iata":"BRC"}},{"type":"Feature","geometry":{"coordinates":[8.78932,53.046786],"type":"Point"},"properties":{"country":"DE","city":"Bremen","icao":"EDDW","name":"Bremen Airport","iata":"BRE"}},{"type":"Feature","geometry":{"coordinates":[16.760599,41.138901],"type":"Point"},"properties":{"country":"IT","city":"Bari","icao":"LIBD","name":"Bari Karol Wojtyła International Airport","iata":"BRI"}},{"type":"Feature","geometry":{"coordinates":[-69.35862,10.042747],"type":"Point"},"properties":{"country":"VE","city":"Barquisimeto","icao":"SVBM","name":"Jacinto Lara International Airport","iata":"BRM"}},{"type":"Feature","geometry":{"coordinates":[-2.716453,51.382326],"type":"Point"},"properties":{"country":"GB","city":"Bristol","icao":"EGGD","name":"Bristol Airport","iata":"BRS"}},{"type":"Feature","geometry":{"coordinates":[4.48444,50.901402],"type":"Point"},"properties":{"country":"BE","city":"Zaventem","icao":"EBBR","name":"Brussels Airport","iata":"BRU"}},{"type":"Feature","geometry":{"coordinates":[49.139231,11.275235],"type":"Point"},"properties":{"country":"SO","city":"Bosaso","icao":"HCMF","name":"Bender Qassim International Airport","iata":"BSA"}},{"type":"Feature","geometry":{"coordinates":[-47.920834,-15.869167],"type":"Point"},"properties":{"country":"BR","city":"Brasília","icao":"SBBR","name":"Presidente Juscelino Kubitschek International Airport","iata":"BSB"}},{"type":"Feature","geometry":{"coordinates":[9.80568,1.90547],"type":"Point"},"properties":{"country":"GQ","city":"Bata","icao":"FGBT","name":"Bata International Airport","iata":"BSG"}},{"type":"Feature","geometry":{"coordinates":[5.738899,34.79318],"type":"Point"},"properties":{"country":"DZ","city":"Biskra","icao":"DAUB","name":"Biskra - Mohamed Khider Airport","iata":"BSK"}},{"type":"Feature","geometry":{"coordinates":[7.521117,47.60068],"type":"Point"},"properties":{"country":"FR","city":"Bâle / Mulhouse","icao":"LFSB","name":"EuroAirport Basel–Mulhouse–Freiburg","iata":"BSL"}},{"type":"Feature","geometry":{"coordinates":[47.662102,30.549101],"type":"Point"},"properties":{"country":"IQ","city":"Basra","icao":"ORMM","name":"Basra International Airport","iata":"BSR"}},{"type":"Feature","geometry":{"coordinates":[74.4776,43.061298],"type":"Point"},"properties":{"country":"KG","city":"Bishkek","icao":"UCFM","name":"Manas International Airport","iata":"BSZ"}},{"type":"Feature","geometry":{"coordinates":[104.119003,1.12103],"type":"Point"},"properties":{"country":"ID","city":"Batam","icao":"WIDD","name":"Hang Nadim International Airport","iata":"BTH"}},{"type":"Feature","geometry":{"coordinates":[95.41997,5.525087],"type":"Point"},"properties":{"country":"ID","city":"Banda Aceh","icao":"WITT","name":"Sultan Iskandar Muda International Airport","iata":"BTJ"}},{"type":"Feature","geometry":{"coordinates":[17.2127,48.1702],"type":"Point"},"properties":{"country":"SK","city":"Bratislava","icao":"LZIB","name":"M. R. Štefánik Airport","iata":"BTS"}},{"type":"Feature","geometry":{"coordinates":[19.262393,47.43018],"type":"Point"},"properties":{"country":"HU","city":"Budapest","icao":"LHBP","name":"Budapest Liszt Ferenc International Airport","iata":"BUD"}},{"type":"Feature","geometry":{"coordinates":[-78.732201,42.940498],"type":"Point"},"properties":{"country":"US","city":"Buffalo","icao":"KBUF","name":"Buffalo Niagara International Airport","iata":"BUF"}},{"type":"Feature","geometry":{"coordinates":[28.622897,-20.016284],"type":"Point"},"properties":{"country":"ZW","city":"Bulawayo","icao":"FVJN","name":"Joshua Mqabuko Nkomo International Airport","iata":"BUQ"}},{"type":"Feature","geometry":{"coordinates":[-118.35805,34.202834],"type":"Point"},"properties":{"country":"US","city":"Burbank","icao":"KBUR","name":"Hollywood Burbank/Bob Hope Airport","iata":"BUR"}},{"type":"Feature","geometry":{"coordinates":[41.600315,41.60939],"type":"Point"},"properties":{"country":"GE","city":"Batumi","icao":"UGSB","name":"Alexander Kartveli Batumi International Airport","iata":"BUS"}},{"type":"Feature","geometry":{"coordinates":[2.11278,49.454399],"type":"Point"},"properties":{"country":"FR","city":"Beauvais","icao":"LFOB","name":"Beauvais-Tillé airport","iata":"BVA"}},{"type":"Feature","geometry":{"coordinates":[-60.690648,2.84615],"type":"Point"},"properties":{"country":"BR","city":"Boa Vista","icao":"SBBV","name":"Atlas Brasil Cantanhede International Airport","iata":"BVB"}},{"type":"Feature","geometry":{"coordinates":[-22.888901,16.136499],"type":"Point"},"properties":{"country":"CV","city":"Rabil","icao":"GVBA","name":"Aristides Pereira International Airport","iata":"BVC"}},{"type":"Feature","geometry":{"coordinates":[83.410381,27.504636],"type":"Point"},"properties":{"country":"NP","city":"Siddharthanagar (Bhairahawa)","icao":"VNBW","name":"Gautam Buddha International Airport","iata":"BWA"}},{"type":"Feature","geometry":{"coordinates":[-76.668297,39.1754],"type":"Point"},"properties":{"country":"US","city":"Baltimore","icao":"KBWI","name":"Baltimore/Washington International Thurgood Marshall Airport","iata":"BWI"}},{"type":"Feature","geometry":{"coordinates":[114.928001,4.9442],"type":"Point"},"properties":{"country":"BN","city":"Bandar Seri Begawan","icao":"WBSB","name":"Brunei International Airport","iata":"BWN"}},{"type":"Feature","geometry":{"coordinates":[63.210773,45.621994],"type":"Point"},"properties":{"country":"KZ","city":"Baikonur","icao":"UAOL","name":"Baikonur Krayniy International Airport","iata":"BXY"}},{"type":"Feature","geometry":{"coordinates":[-88.303556,17.539951],"type":"Point"},"properties":{"country":"BZ","city":"Belize City","icao":"MZBZ","name":"Philip S. W. Goldson International Airport","iata":"BZE"}},{"type":"Feature","geometry":{"coordinates":[15.253,-4.2517],"type":"Point"},"properties":{"country":"CG","city":"Brazzaville","icao":"FCBB","name":"Maya-Maya International Airport","iata":"BZV"}},{"type":"Feature","geometry":{"coordinates":[9.05428,39.251499],"type":"Point"},"properties":{"country":"IT","city":"Cagliari","icao":"LIEE","name":"Cagliari Elmas Airport","iata":"CAG"}},{"type":"Feature","geometry":{"coordinates":[31.396694,30.111534],"type":"Point"},"properties":{"country":"EG","city":"Cairo","icao":"HECA","name":"Cairo International Airport","iata":"CAI"}},{"type":"Feature","geometry":{"coordinates":[113.299004,23.392401],"type":"Point"},"properties":{"country":"CN","city":"Guangzhou (Huadu)","icao":"ZGGG","name":"Guangzhou Baiyun International Airport","iata":"CAN"}},{"type":"Feature","geometry":{"coordinates":[-72.20071,19.725547],"type":"Point"},"properties":{"country":"HT","city":"Cap Haitien","icao":"MTCH","name":"Cap Haitien International Airport","iata":"CAP"}},{"type":"Feature","geometry":{"coordinates":[-52.361326,4.819964],"type":"Point"},"properties":{"country":"GF","city":"Matoury","icao":"SOCA","name":"Cayenne – Félix Eboué Airport","iata":"CAY"}},{"type":"Feature","geometry":{"coordinates":[-66.177102,-17.421105],"type":"Point"},"properties":{"country":"BO","city":"Cochabamba","icao":"SLCB","name":"Jorge Wilsterman International Airport","iata":"CBB"}},{"type":"Feature","geometry":{"coordinates":[75.955152,11.135996],"type":"Point"},"properties":{"country":"IN","city":"Calicut","icao":"VOCL","name":"Calicut International Airport","iata":"CCJ"}},{"type":"Feature","geometry":{"coordinates":[96.834103,-12.192218],"type":"Point"},"properties":{"country":"CC","city":"West Island","icao":"YPCC","name":"Cocos (Keeling) Islands Airport","iata":"CCK"}},{"type":"Feature","geometry":{"coordinates":[-73.062828,-36.77235],"type":"Point"},"properties":{"country":"CL","city":"Concepcion","icao":"SCIE","name":"Carriel Sur International Airport","iata":"CCP"}},{"type":"Feature","geometry":{"coordinates":[-66.991174,10.602214],"type":"Point"},"properties":{"country":"VE","city":"Maiquetía","icao":"SVMI","name":"Maiquetía Simón Bolívar International Airport","iata":"CCS"}},{"type":"Feature","geometry":{"coordinates":[88.44765,22.654012],"type":"Point"},"properties":{"country":"IN","city":"Kolkata","icao":"VECC","name":"Netaji Subhash Chandra Bose International Airport","iata":"CCU"}},{"type":"Feature","geometry":{"coordinates":[2.554117,49.00896],"type":"Point"},"properties":{"country":"FR","city":"Paris (Roissy-en-France, Val-d\u0027Oise)","icao":"LFPG","name":"Charles de Gaulle International Airport","iata":"CDG"}},{"type":"Feature","geometry":{"coordinates":[123.97974,10.309261],"type":"Point"},"properties":{"country":"PH","city":"Cebu City/Lapu-Lapu City","icao":"RPVM","name":"Mactan Cebu International Airport","iata":"CEB"}},{"type":"Feature","geometry":{"coordinates":[99.882896,19.952299],"type":"Point"},"properties":{"country":"TH","city":"Chiang Rai","icao":"VTCT","name":"Mae Fah Luang - Chiang Rai International Airport","iata":"CEI"}},{"type":"Feature","geometry":{"coordinates":[61.504927,55.303141],"type":"Point"},"properties":{"country":"RU","city":"Chelyabinsk","icao":"USCC","name":"Kurchatov Chelyabinsk International Airport","iata":"CEK"}},{"type":"Feature","geometry":{"coordinates":[3.16917,45.786701],"type":"Point"},"properties":{"country":"FR","city":"Clermont-Ferrand","icao":"LFLC","name":"Clermont-Ferrand Auvergne airport","iata":"CFE"}},{"type":"Feature","geometry":{"coordinates":[1.341114,36.216614],"type":"Point"},"properties":{"country":"DZ","city":"Chlef","icao":"DAOI","name":"Chlef Aboubakr Belkaid International Airport","iata":"CFK"}},{"type":"Feature","geometry":{"coordinates":[19.912179,39.60145],"type":"Point"},"properties":{"country":"GR","city":"Kerkyra (Corfu)","icao":"LGKR","name":"Corfu Ioannis Kapodistrias International Airport","iata":"CFU"}},{"type":"Feature","geometry":{"coordinates":[-56.116699,-15.6529],"type":"Point"},"properties":{"country":"BR","city":"Cuiabá","icao":"SBCY","name":"Várzea Grande–Marechal Rondon International Airport","iata":"CGB"}},{"type":"Feature","geometry":{"coordinates":[-46.654601,-23.627657],"type":"Point"},"properties":{"country":"BR","city":"São Paulo","icao":"SBSP","name":"Congonhas–Deputado Freitas Nobre Airport","iata":"CGH"}},{"type":"Feature","geometry":{"coordinates":[106.655998,-6.12557],"type":"Point"},"properties":{"country":"ID","city":"Jakarta","icao":"WIII","name":"Soekarno-Hatta International Airport","iata":"CGK"}},{"type":"Feature","geometry":{"coordinates":[7.14274,50.865898],"type":"Point"},"properties":{"country":"DE","city":"Köln (Cologne)","icao":"EDDK","name":"Cologne Bonn Airport","iata":"CGN"}},{"type":"Feature","geometry":{"coordinates":[113.849165,34.526497],"type":"Point"},"properties":{"country":"CN","city":"Zhengzhou","icao":"ZHCC","name":"Zhengzhou Xinzheng International Airport","iata":"CGO"}},{"type":"Feature","geometry":{"coordinates":[91.813301,22.249599],"type":"Point"},"properties":{"country":"BD","city":"Chattogram (Chittagong)","icao":"VGEG","name":"Shah Amanat International Airport","iata":"CGP"}},{"type":"Feature","geometry":{"coordinates":[125.684998,43.996201],"type":"Point"},"properties":{"country":"CN","city":"Changchun","icao":"ZYCC","name":"Changchun Longjia International Airport","iata":"CGQ"}},{"type":"Feature","geometry":{"coordinates":[124.456496,8.612203],"type":"Point"},"properties":{"country":"PH","city":"Laguindingan","icao":"RPMY","name":"Laguindingan International Airport","iata":"CGY"}},{"type":"Feature","geometry":{"coordinates":[172.532065,-43.489029],"type":"Point"},"properties":{"country":"NZ","city":"Christchurch","icao":"NZCH","name":"Christchurch International Airport","iata":"CHC"}},{"type":"Feature","geometry":{"coordinates":[24.150673,35.531207],"type":"Point"},"properties":{"country":"GR","city":"Souda","icao":"LGSA","name":"Chania International Airport","iata":"CHQ"}},{"type":"Feature","geometry":{"coordinates":[-80.038151,32.896159],"type":"Point"},"properties":{"country":"US","city":"Charleston","icao":"KCHS","name":"Charleston International Airport","iata":"CHS"}},{"type":"Feature","geometry":{"coordinates":[12.595331,41.798769],"type":"Point"},"properties":{"country":"IT","city":"Rome","icao":"LIRA","name":"Ciampino–G. B. Pastine International Airport","iata":"CIA"}},{"type":"Feature","geometry":{"coordinates":[69.47564,42.365021],"type":"Point"},"properties":{"country":"KZ","city":"Shymkent","icao":"UAII","name":"Shymkent International Airport","iata":"CIT"}},{"type":"Feature","geometry":{"coordinates":[-79.828254,-6.789223],"type":"Point"},"properties":{"country":"PE","city":"Chiclayo","icao":"SPHI","name":"Capitán FAP José A. Quiñones González International Airport","iata":"CIX"}},{"type":"Feature","geometry":{"coordinates":[77.043404,11.03],"type":"Point"},"properties":{"country":"IN","city":"Coimbatore","icao":"VOCB","name":"Coimbatore International Airport","iata":"CJB"}},{"type":"Feature","geometry":{"coordinates":[127.500289,36.71556],"type":"Point"},"properties":{"country":"KR","city":"Cheongju","icao":"RKTU","name":"Cheongju International Airport/Cheongju Air Base (K-59/G-513)","iata":"CJJ"}},{"type":"Feature","geometry":{"coordinates":[-106.428533,31.636673],"type":"Point"},"properties":{"country":"MX","city":"Ciudad Juárez","icao":"MMCS","name":"Abraham González International Airport","iata":"CJS"}},{"type":"Feature","geometry":{"coordinates":[126.492548,33.512058],"type":"Point"},"properties":{"country":"KR","city":"Jeju City","icao":"RKPC","name":"Jeju International Airport","iata":"CJU"}},{"type":"Feature","geometry":{"coordinates":[106.651895,29.712254],"type":"Point"},"properties":{"country":"CN","city":"Chongqing","icao":"ZUCK","name":"Chongqing Jiangbei International Airport","iata":"CKG"}},{"type":"Feature","geometry":{"coordinates":[-13.612,9.57689],"type":"Point"},"properties":{"country":"GN","city":"Conakry","icao":"GUCY","name":"Ahmed Sékou Touré International Airport","iata":"CKY"}},{"type":"Feature","geometry":{"coordinates":[-81.8498,41.411701],"type":"Point"},"properties":{"country":"US","city":"Cleveland","icao":"KCLE","name":"Cleveland Hopkins International Airport","iata":"CLE"}},{"type":"Feature","geometry":{"coordinates":[23.685733,46.786042],"type":"Point"},"properties":{"country":"RO","city":"Cluj-Napoca","icao":"LRCL","name":"Avram Iancu Cluj International Airport","iata":"CLJ"}},{"type":"Feature","geometry":{"coordinates":[-76.381898,3.542717],"type":"Point"},"properties":{"country":"CO","city":"Cali","icao":"SKCL","name":"Alfonso Bonilla Aragon International Airport","iata":"CLO"}},{"type":"Feature","geometry":{"coordinates":[-80.943099975585938,35.2140007019043],"type":"Point"},"properties":{"country":"US","city":"Charlotte","icao":"KCLT","name":"Charlotte Douglas International Airport","iata":"CLT"}},{"type":"Feature","geometry":{"coordinates":[79.884101867675781,7.1807599067687988],"type":"Point"},"properties":{"country":"LK","city":"Colombo","icao":"VCBI","name":"Bandaranaike International Colombo Airport","iata":"CMB"}},{"type":"Feature","geometry":{"coordinates":[-82.891899,39.998001],"type":"Point"},"properties":{"country":"US","city":"Columbus","icao":"KCMH","name":"John Glenn Columbus International Airport","iata":"CMH"}},{"type":"Feature","geometry":{"coordinates":[-7.58997,33.3675],"type":"Point"},"properties":{"country":"MA","city":"Casablanca","icao":"GMMN","name":"Mohammed V International Airport","iata":"CMN"}},{"type":"Feature","geometry":{"coordinates":[-77.848039,21.419909],"type":"Point"},"properties":{"country":"CU","city":"Camaguey","icao":"MUCM","name":"Ignacio Agramonte International Airport","iata":"CMW"}},{"type":"Feature","geometry":{"coordinates":[28.4883,44.362202],"type":"Point"},"properties":{"country":"RO","city":"Constanța","icao":"LRCK","name":"Mihail Kogălniceanu International Airport","iata":"CND"}},{"type":"Feature","geometry":{"coordinates":[-43.966928,-19.63571],"type":"Point"},"properties":{"country":"BR","city":"Belo Horizonte","icao":"SBCF","name":"Tancredo Neves International Airport","iata":"CNF"}},{"type":"Feature","geometry":{"coordinates":[75.544979,11.916343],"type":"Point"},"properties":{"country":"IN","city":"Kannur","icao":"VOKN","name":"Kannur International Airport","iata":"CNN"}},{"type":"Feature","geometry":{"coordinates":[145.74948,-16.878921],"type":"Point"},"properties":{"country":"AU","city":"Cairns","icao":"YBCS","name":"Cairns International Airport","iata":"CNS"}},{"type":"Feature","geometry":{"coordinates":[98.962600708,18.766799926799997],"type":"Point"},"properties":{"country":"TH","city":"Chiang Mai","icao":"VTCC","name":"Chiang Mai International Airport","iata":"CNX"}},{"type":"Feature","geometry":{"coordinates":[76.400838,10.151047],"type":"Point"},"properties":{"country":"IN","city":"Kochi","icao":"VOCI","name":"Cochin International Airport","iata":"COK"}},{"type":"Feature","geometry":{"coordinates":[2.38435,6.35723],"type":"Point"},"properties":{"country":"BJ","city":"Cotonou","icao":"DBBB","name":"Cotonou Cadjehoun International Airport","iata":"COO"}},{"type":"Feature","geometry":{"coordinates":[-64.208329,-31.312346],"type":"Point"},"properties":{"country":"AR","city":"Cordoba","icao":"SACO","name":"Ingeniero Aeronáutico Ambrosio L.V. Taravella International Airport","iata":"COR"}},{"type":"Feature","geometry":{"coordinates":[-104.700996,38.805801],"type":"Point"},"properties":{"country":"US","city":"Colorado Springs","icao":"KCOS","name":"City of Colorado Springs Municipal Airport","iata":"COS"}},{"type":"Feature","geometry":{"coordinates":[35.071235,36.891478],"type":"Point"},"properties":{"country":"TR","city":"Tarsus","icao":"LTDB","name":"Çukurova International Airport","iata":"COV"}},{"type":"Feature","geometry":{"coordinates":[12.656000137329,55.617900848389],"type":"Point"},"properties":{"country":"DK","city":"Copenhagen","icao":"EKCH","name":"Copenhagen Kastrup Airport","iata":"CPH"}},{"type":"Feature","geometry":{"coordinates":[18.604333,-33.97403],"type":"Point"},"properties":{"country":"ZA","city":"Cape Town","icao":"FACT","name":"Cape Town International Airport","iata":"CPT"}},{"type":"Feature","geometry":{"coordinates":[23.888599,44.3181],"type":"Point"},"properties":{"country":"RO","city":"Craiova","icao":"LRCV","name":"Craiova International Airport","iata":"CRA"}},{"type":"Feature","geometry":{"coordinates":[-67.463355,-45.786941],"type":"Point"},"properties":{"country":"AR","city":"Comodoro Rivadavia","icao":"SAVC","name":"General Enrique Mosconi International Airport","iata":"CRD"}},{"type":"Feature","geometry":{"coordinates":[120.559998,15.186],"type":"Point"},"properties":{"country":"PH","city":"Mabalacat","icao":"RPLC","name":"Clark International Airport / Clark Air Base","iata":"CRK"}},{"type":"Feature","geometry":{"coordinates":[4.459562,50.461963],"type":"Point"},"properties":{"country":"BE","city":"Charleroi","icao":"EBCI","name":"Brussels South Charleroi Airport","iata":"CRL"}},{"type":"Feature","geometry":{"coordinates":[63.563982,38.930662],"type":"Point"},"properties":{"country":"TM","city":"Türkmenabat","icao":"UTAV","name":"Türkmenabat International Airport","iata":"CRZ"}},{"type":"Feature","geometry":{"coordinates":[113.220001,28.189199],"type":"Point"},"properties":{"country":"CN","city":"Changsha (Changsha)","icao":"ZGHA","name":"Changsha Huanghua International Airport","iata":"CSX"}},{"type":"Feature","geometry":{"coordinates":[15.0664,37.466801],"type":"Point"},"properties":{"country":"IT","city":"Catania","icao":"LICC","name":"Catania-Fontanarossa Airport","iata":"CTA"}},{"type":"Feature","geometry":{"coordinates":[-75.513,10.4424],"type":"Point"},"properties":{"country":"CO","city":"Cartagena","icao":"SKCG","name":"Rafael Nuñez International Airport","iata":"CTG"}},{"type":"Feature","geometry":{"coordinates":[141.690414,42.774753],"type":"Point"},"properties":{"country":"JP","city":"Sapporo","icao":"RJCC","name":"New Chitose Airport","iata":"CTS"}},{"type":"Feature","geometry":{"coordinates":[103.945966,30.558257],"type":"Point"},"properties":{"country":"CN","city":"Chengdu (Shuangliu)","icao":"ZUUU","name":"Chengdu Shuangliu International Airport","iata":"CTU"}},{"type":"Feature","geometry":{"coordinates":[-107.475228,24.76504],"type":"Point"},"properties":{"country":"MX","city":"Culiacán","icao":"MMCL","name":"Bachigualato Federal International Airport","iata":"CUL"}},{"type":"Feature","geometry":{"coordinates":[-86.87347,21.040817],"type":"Point"},"properties":{"country":"MX","city":"Cancún","icao":"MMUN","name":"Cancún International Airport","iata":"CUN"}},{"type":"Feature","geometry":{"coordinates":[-68.959801,12.1889],"type":"Point"},"properties":{"country":"CW","city":"Willemstad","icao":"TNCC","name":"Hato International Airport","iata":"CUR"}},{"type":"Feature","geometry":{"coordinates":[-105.963764,28.702649],"type":"Point"},"properties":{"country":"MX","city":"Chihuahua","icao":"MMCU","name":"General Roberto Fierro Villalobos International Airport","iata":"CUU"}},{"type":"Feature","geometry":{"coordinates":[-71.9387969971,-13.535699844400002],"type":"Point"},"properties":{"country":"PE","city":"Cusco","icao":"SPZO","name":"Alejandro Velasco Astete International Airport","iata":"CUZ"}},{"type":"Feature","geometry":{"coordinates":[-84.667801,39.048801],"type":"Point"},"properties":{"country":"US","city":"Cincinnati / Covington","icao":"KCVG","name":"Cincinnati Northern Kentucky International Airport","iata":"CVG"}},{"type":"Feature","geometry":{"coordinates":[-49.1758,-25.5285],"type":"Point"},"properties":{"country":"BR","city":"Curitiba","icao":"SBCT","name":"Curitiba-Afonso Pena International Airport","iata":"CWB"}},{"type":"Feature","geometry":{"coordinates":[-3.34333,51.396702],"type":"Point"},"properties":{"country":"GB","city":"Cardiff","icao":"EGFF","name":"Cardiff International Airport","iata":"CWL"}},{"type":"Feature","geometry":{"coordinates":[-157.350011,1.986278],"type":"Point"},"properties":{"country":"KI","city":"Kiritimati","icao":"PLCH","name":"Cassidy International Airport","iata":"CXI"}},{"type":"Feature","geometry":{"coordinates":[109.219002,11.9982],"type":"Point"},"properties":{"country":"VN","city":"Nha Trang/nha Trang aiurportCam Ranh","icao":"VVCR","name":"Cam Ranh International Airport / Cam Ranh Air Base","iata":"CXR"}},{"type":"Feature","geometry":{"coordinates":[6.62039,36.276001],"type":"Point"},"properties":{"country":"DZ","city":"Constantine","icao":"DABC","name":"Mohamed Boudiaf International Airport","iata":"CZL"}},{"type":"Feature","geometry":{"coordinates":[-86.928538,20.514922],"type":"Point"},"properties":{"country":"MX","city":"Cozumel","icao":"MMCZ","name":"Cozumel International Airport","iata":"CZM"}},{"type":"Feature","geometry":{"coordinates":[90.397783,23.843347],"type":"Point"},"properties":{"country":"BD","city":"Dhaka","icao":"VGHS","name":"Hazrat Shahjalal International Airport","iata":"DAC"}},{"type":"Feature","geometry":{"coordinates":[108.198997,16.0439],"type":"Point"},"properties":{"country":"VN","city":"Da Nang","icao":"VVDN","name":"Da Nang International Airport","iata":"DAD"}},{"type":"Feature","geometry":{"coordinates":[-96.847653,32.844776],"type":"Point"},"properties":{"country":"US","city":"Dallas","icao":"KDAL","name":"Dallas Love Field","iata":"DAL"}},{"type":"Feature","geometry":{"coordinates":[36.515598297119141,33.4114990234375],"type":"Point"},"properties":{"country":"SY","city":"Damascus","icao":"OSDI","name":"Damascus International Airport","iata":"DAM"}},{"type":"Feature","geometry":{"coordinates":[39.207288,-6.873499],"type":"Point"},"properties":{"country":"TZ","city":"Dar es Salaam","icao":"HTDA","name":"Julius Nyerere International Airport","iata":"DAR"}},{"type":"Feature","geometry":{"coordinates":[113.480509,40.06139],"type":"Point"},"properties":{"country":"CN","city":"Datong","icao":"ZBDT","name":"Datong Yungang International Airport","iata":"DAT"}},{"type":"Feature","geometry":{"coordinates":[28.46161,30.924324],"type":"Point"},"properties":{"country":"EG","city":"El Alamein","icao":"HEAL","name":"El Alamein International Airport","iata":"DBB"}},{"type":"Feature","geometry":{"coordinates":[18.265543,42.562247],"type":"Point"},"properties":{"country":"HR","city":"Dubrovnik","icao":"LDDU","name":"Dubrovnik Ruđer Bošković Airport","iata":"DBV"}},{"type":"Feature","geometry":{"coordinates":[-77.037697,38.8521],"type":"Point"},"properties":{"country":"US","city":"Washington","icao":"KDCA","name":"Ronald Reagan Washington National Airport","iata":"DCA"}},{"type":"Feature","geometry":{"coordinates":[21.616278,47.489469],"type":"Point"},"properties":{"country":"HU","city":"Debrecen","icao":"LHDC","name":"Debrecen International Airport","iata":"DEB"}},{"type":"Feature","geometry":{"coordinates":[77.09519,28.55563],"type":"Point"},"properties":{"country":"IN","city":"New Delhi","icao":"VIDP","name":"Indira Gandhi International Airport","iata":"DEL"}},{"type":"Feature","geometry":{"coordinates":[-104.673792,39.860027],"type":"Point"},"properties":{"country":"US","city":"Denver","icao":"KDEN","name":"Denver International Airport","iata":"DEN"}},{"type":"Feature","geometry":{"coordinates":[-97.038002,32.896801],"type":"Point"},"properties":{"country":"US","city":"Dallas-Fort Worth","icao":"KDFW","name":"Dallas Fort Worth International Airport","iata":"DFW"}},{"type":"Feature","geometry":{"coordinates":[50.152,26.2654],"type":"Point"},"properties":{"country":"SA","city":"Dhahran","icao":"OEDR","name":"King Abdulaziz Air Base","iata":"DHA"}},{"type":"Feature","geometry":{"coordinates":[51.565528,25.259431],"type":"Point"},"properties":{"country":"QA","city":"Doha","icao":"OTBD","name":"Doha International Airport","iata":"DIA"}},{"type":"Feature","geometry":{"coordinates":[125.524507,-8.546562],"type":"Point"},"properties":{"country":"TL","city":"Dili","icao":"WPDL","name":"Presidente Nicolau Lobato International Airport","iata":"DIL"}},{"type":"Feature","geometry":{"coordinates":[41.855027,9.623549],"type":"Point"},"properties":{"country":"ET","city":"Dire Dawa","icao":"HADR","name":"Aba Tenna Dejazmach Yilma International Airport","iata":"DIR"}},{"type":"Feature","geometry":{"coordinates":[10.7773,33.873719],"type":"Point"},"properties":{"country":"TN","city":"Mellita","icao":"DTTJ","name":"Djerba Zarzis International Airport","iata":"DJE"}},{"type":"Feature","geometry":{"coordinates":[9.463652,24.285448],"type":"Point"},"properties":{"country":"DZ","city":"Djanet","icao":"DAAJ","name":"Tiska Djanet Airport","iata":"DJG"}},{"type":"Feature","geometry":{"coordinates":[140.519857,-2.579627],"type":"Point"},"properties":{"country":"ID","city":"Sentani","icao":"WAJJ","name":"Dortheys Hiyo Eluay International Airport","iata":"DJJ"}},{"type":"Feature","geometry":{"coordinates":[-17.479222,14.742337],"type":"Point"},"properties":{"country":"SN","city":"Dakar","icao":"GOOY","name":"Léopold Sédar Senghor International Airport","iata":"DKR"}},{"type":"Feature","geometry":{"coordinates":[9.71948,4.00608],"type":"Point"},"properties":{"country":"CM","city":"Douala","icao":"FKKD","name":"Douala International Airport","iata":"DLA"}},{"type":"Feature","geometry":{"coordinates":[121.538477,38.965719],"type":"Point"},"properties":{"country":"CN","city":"Dalian (Ganjingzi)","icao":"ZYTL","name":"Dalian Zhoushuizi International Airport","iata":"DLC"}},{"type":"Feature","geometry":{"coordinates":[28.7925,36.7131],"type":"Point"},"properties":{"country":"TR","city":"Dalaman","icao":"LTBS","name":"Dalaman International Airport","iata":"DLM"}},{"type":"Feature","geometry":{"coordinates":[71.303596,42.8536],"type":"Point"},"properties":{"country":"KZ","city":"Taraz","icao":"UADD","name":"Taraz International Airport","iata":"DMB"}},{"type":"Feature","geometry":{"coordinates":[37.9063,55.408798],"type":"Point"},"properties":{"country":"RU","city":"Moscow","icao":"UUDD","name":"Domodedovo International Airport","iata":"DME"}},{"type":"Feature","geometry":{"coordinates":[100.607002,13.9126],"type":"Point"},"properties":{"country":"TH","city":"Bangkok","icao":"VTBD","name":"Don Mueang International Airport","iata":"DMK"}},{"type":"Feature","geometry":{"coordinates":[49.798209,26.4691],"type":"Point"},"properties":{"country":"SA","city":"Ad Dammam","icao":"OEDF","name":"King Fahd International Airport","iata":"DMM"}},{"type":"Feature","geometry":{"coordinates":[127.76944399999999,26.351667],"type":"Point"},"properties":{"country":"JP","city":"Okinawa","icao":"RODN","name":"Kadena Air Base","iata":"DNA"}},{"type":"Feature","geometry":{"coordinates":[94.812827,40.161953],"type":"Point"},"properties":{"country":"CN","city":"Dunhuang","icao":"ZLDH","name":"Dunhuang Mogao International Airport","iata":"DNH"}},{"type":"Feature","geometry":{"coordinates":[51.608056,25.273056],"type":"Point"},"properties":{"country":"QA","city":"Doha","icao":"OTHH","name":"Hamad International Airport","iata":"DOH"}},{"type":"Feature","geometry":{"coordinates":[115.167123,-8.748409],"type":"Point"},"properties":{"country":"ID","city":"Kuta, Badung","icao":"WADD","name":"Denpasar I Gusti Ngurah Rai International Airport","iata":"DPS"}},{"type":"Feature","geometry":{"coordinates":[57.634167,19.501944],"type":"Point"},"properties":{"country":"OM","city":"Duqm","icao":"","name":"Duqm International Airport","iata":"DQM"}},{"type":"Feature","geometry":{"coordinates":[123.676829,13.111915],"type":"Point"},"properties":{"country":"PH","city":"Legazpi","icao":"RPLK","name":"Bicol International Airport","iata":"DRP"}},{"type":"Feature","geometry":{"coordinates":[13.767831,51.134123],"type":"Point"},"properties":{"country":"DE","city":"Dresden","icao":"EDDC","name":"Dresden Airport","iata":"DRS"}},{"type":"Feature","geometry":{"coordinates":[130.88185,-12.41497],"type":"Point"},"properties":{"country":"AU","city":"Darwin","icao":"YPDN","name":"Darwin International Airport / RAAF Darwin","iata":"DRW"}},{"type":"Feature","geometry":{"coordinates":[-93.656719,41.534027],"type":"Point"},"properties":{"country":"US","city":"Des Moines","icao":"KDSM","name":"Des Moines International Airport","iata":"DSM"}},{"type":"Feature","geometry":{"coordinates":[109.8599,39.493514],"type":"Point"},"properties":{"country":"CN","city":"Ordos","icao":"ZBDS","name":"Ordos Ejin Horo International Airport","iata":"DSN"}},{"type":"Feature","geometry":{"coordinates":[-17.072829,14.670878],"type":"Point"},"properties":{"country":"SN","city":"Dakar","icao":"GOBD","name":"Blaise Diagne International Airport","iata":"DSS"}},{"type":"Feature","geometry":{"coordinates":[103.226652,10.914244],"type":"Point"},"properties":{"country":"KH","city":"Ta Noun","icao":"","name":"Dara Sakor International Airport","iata":"DSY"}},{"type":"Feature","geometry":{"coordinates":[7.61224,51.518299],"type":"Point"},"properties":{"country":"DE","city":"Dortmund","icao":"EDLW","name":"Dortmund Airport","iata":"DTM"}},{"type":"Feature","geometry":{"coordinates":[-83.353786,42.21377],"type":"Point"},"properties":{"country":"US","city":"Detroit","icao":"KDTW","name":"Detroit Metropolitan Wayne County Airport","iata":"DTW"}},{"type":"Feature","geometry":{"coordinates":[-6.262121,53.428713],"type":"Point"},"properties":{"country":"IE","city":"Dublin","icao":"EIDW","name":"Dublin Airport","iata":"DUB"}},{"type":"Feature","geometry":{"coordinates":[31.1197222222,-29.6144444444],"type":"Point"},"properties":{"country":"ZA","city":"Durban","icao":"FALE","name":"King Shaka International Airport","iata":"DUR"}},{"type":"Feature","geometry":{"coordinates":[6.76678,51.289501],"type":"Point"},"properties":{"country":"DE","city":"Düsseldorf","icao":"EDDL","name":"Düsseldorf Airport","iata":"DUS"}},{"type":"Feature","geometry":{"coordinates":[125.646004,7.12552],"type":"Point"},"properties":{"country":"PH","city":"Davao","icao":"RPMD","name":"Francisco Bangoy International Airport","iata":"DVO"}},{"type":"Feature","geometry":{"coordinates":[55.16235,24.896171],"type":"Point"},"properties":{"country":"AE","city":"Dubai(Jebel Ali)","icao":"OMDW","name":"Al Maktoum International Airport","iata":"DWC"}},{"type":"Feature","geometry":{"coordinates":[55.370992,25.24979],"type":"Point"},"properties":{"country":"AE","city":"Dubai","icao":"OMDB","name":"Dubai International Airport","iata":"DXB"}},{"type":"Feature","geometry":{"coordinates":[77.611843,28.179868],"type":"Point"},"properties":{"country":"IN","city":"Gautam Buddha Nagar","icao":"VIND","name":"Noida International Airport","iata":"DXN"}},{"type":"Feature","geometry":{"coordinates":[110.442786,29.104749],"type":"Point"},"properties":{"country":"CN","city":"Zhangjiajie (Yongding)","icao":"ZGDY","name":"Zhangjiajie Hehua International Airport","iata":"DYG"}},{"type":"Feature","geometry":{"coordinates":[68.822977,38.543746],"type":"Point"},"properties":{"country":"TJ","city":"Dushanbe","icao":"UTDD","name":"Dushanbe International Airport","iata":"DYU"}},{"type":"Feature","geometry":{"coordinates":[45.281815,-12.809319],"type":"Point"},"properties":{"country":"YT","city":"Dzaoudzi","icao":"FMCZ","name":"Dzaoudzi Pamandzi International Airport","iata":"DZA"}},{"type":"Feature","geometry":{"coordinates":[67.738094,47.708953],"type":"Point"},"properties":{"country":"KZ","city":"Zhezkazgan","icao":"UAKD","name":"Zhezkazgan National Airport","iata":"DZN"}},{"type":"Feature","geometry":{"coordinates":[32.443501,0.042386],"type":"Point"},"properties":{"country":"UG","city":"Entebbe","icao":"HUEN","name":"Entebbe International Airport","iata":"EBB"}},{"type":"Feature","geometry":{"coordinates":[43.946615,36.236047],"type":"Point"},"properties":{"country":"IQ","city":"Arbil","icao":"ORER","name":"Erbil International Airport","iata":"EBL"}},{"type":"Feature","geometry":{"coordinates":[33.507352,35.153064],"type":"Point"},"properties":{"country":"CY","city":"Tymbou (Kirklar)","icao":"LCEN","name":"Ercan International Airport","iata":"ECN"}},{"type":"Feature","geometry":{"coordinates":[-3.372288,55.950145],"type":"Point"},"properties":{"country":"GB","city":"Edinburgh","icao":"EGPH","name":"Edinburgh Airport","iata":"EDI"}},{"type":"Feature","geometry":{"coordinates":[35.238899,0.404458],"type":"Point"},"properties":{"country":"KE","city":"Eldoret","icao":"HKEL","name":"Eldoret International Airport","iata":"EDL"}},{"type":"Feature","geometry":{"coordinates":[27.010192,39.552533],"type":"Point"},"properties":{"country":"TR","city":"Edremit","icao":"LTFD","name":"Balıkesir Koca Seyit Airport","iata":"EDO"}},{"type":"Feature","geometry":{"coordinates":[35.460277,23.980437],"type":"Point"},"properties":{"country":"EG","city":"Berenice Troglodytica","icao":"HEBR","name":"Berenice International Airport / Banas Cape Air Base","iata":"EES"}},{"type":"Feature","geometry":{"coordinates":[115.03926,30.341178],"type":"Point"},"properties":{"country":"CN","city":"Ezhou","icao":"ZHEC","name":"Ezhou Huahu International Airport","iata":"EHU"}},{"type":"Feature","geometry":{"coordinates":[5.37452983856,51.4500999451],"type":"Point"},"properties":{"country":"NL","city":"Eindhoven","icao":"EHEH","name":"Eindhoven Airport","iata":"EIN"}},{"type":"Feature","geometry":{"coordinates":[-64.541707,18.445492],"type":"Point"},"properties":{"country":"VG","city":"Beef Island","icao":"TUPJ","name":"Terrance B. Lettsome International Airport","iata":"EIS"}},{"type":"Feature","geometry":{"coordinates":[-106.375607,31.809908],"type":"Point"},"properties":{"country":"US","city":"El Paso","icao":"KELP","name":"El Paso International Airport","iata":"ELP"}},{"type":"Feature","geometry":{"coordinates":[43.774399,26.302799],"type":"Point"},"properties":{"country":"SA","city":"Qassim","icao":"OEGS","name":"Prince Naif bin Abdulaziz International Airport","iata":"ELQ"}},{"type":"Feature","geometry":{"coordinates":[27.825899,-33.035599],"type":"Point"},"properties":{"country":"ZA","city":"East London","icao":"FAEL","name":"King Phalo Airport","iata":"ELS"}},{"type":"Feature","geometry":{"coordinates":[-1.32806,52.8311],"type":"Point"},"properties":{"country":"GB","city":"Nottingham, Leicestershire","icao":"EGNX","name":"East Midlands Airport","iata":"EMA"}},{"type":"Feature","geometry":{"coordinates":[-55.837584,-27.227537],"type":"Point"},"properties":{"country":"PY","city":"Encarnación","icao":"SGEN","name":"Teniente Ramon A. Ayub Gonzalez International Airport","iata":"ENO"}},{"type":"Feature","geometry":{"coordinates":[7.560463,6.473718],"type":"Point"},"properties":{"country":"NG","city":"Enegu","icao":"DNEN","name":"Akanu Ibiam International Airport","iata":"ENU"}},{"type":"Feature","geometry":{"coordinates":[10.960713,50.978281],"type":"Point"},"properties":{"country":"DE","city":"Erfurt","icao":"EDDE","name":"Erfurt-Weimar Airport","iata":"ERF"}},{"type":"Feature","geometry":{"coordinates":[32.995098,40.128101],"type":"Point"},"properties":{"country":"TR","city":"Ankara","icao":"LTAC","name":"Esenboğa International Airport","iata":"ESB"}},{"type":"Feature","geometry":{"coordinates":[-79.626602,0.978519],"type":"Point"},"properties":{"country":"EC","city":"Tachina","icao":"SETN","name":"Carlos Concha Torres International Airport","iata":"ESM"}},{"type":"Feature","geometry":{"coordinates":[35.014116,29.727009],"type":"Point"},"properties":{"country":"IL","city":"Eilat","icao":"LLER","name":"Ramon International Airport","iata":"ETM"}},{"type":"Feature","geometry":{"coordinates":[-13.224947,27.142467],"type":"Point"},"properties":{"country":"EH","city":"El Aaiún","icao":"GMML","name":"Laayoune Hassan I International Airport","iata":"EUN"}},{"type":"Feature","geometry":{"coordinates":[16.678101,68.491302],"type":"Point"},"properties":{"country":"NO","city":"Evenes","icao":"ENEV","name":"Harstad/Narvik Airport","iata":"EVE"}},{"type":"Feature","geometry":{"coordinates":[44.397887,40.148941],"type":"Point"},"properties":{"country":"AM","city":"Yerevan","icao":"UDYZ","name":"Zvartnots International Airport","iata":"EVN"}},{"type":"Feature","geometry":{"coordinates":[-74.170545,40.6894],"type":"Point"},"properties":{"country":"US","city":"Newark","icao":"KEWR","name":"Newark Liberty International Airport","iata":"EWR"}},{"type":"Feature","geometry":{"coordinates":[-58.5358,-34.8222],"type":"Point"},"properties":{"country":"AR","city":"Buenos Aires (Ezeiza)","icao":"SAEZ","name":"Ezeiza International Airport - Ministro Pistarini","iata":"EZE"}},{"type":"Feature","geometry":{"coordinates":[-7.275782,62.063256],"type":"Point"},"properties":{"country":"FO","city":"Vágar","icao":"EKVG","name":"Vágar Airport","iata":"FAE"}},{"type":"Feature","geometry":{"coordinates":[-7.970939,37.015909],"type":"Point"},"properties":{"country":"PT","city":"Faro","icao":"LPFR","name":"Faro - Gago Coutinho International Airport","iata":"FAO"}},{"type":"Feature","geometry":{"coordinates":[-119.718018,36.775767],"type":"Point"},"properties":{"country":"US","city":"Fresno","icao":"KFAT","name":"Fresno Yosemite International Airport","iata":"FAT"}},{"type":"Feature","geometry":{"coordinates":[27.530753,-11.591494],"type":"Point"},"properties":{"country":"CD","city":"Lubumbashi","icao":"FZQA","name":"Lubumbashi International Airport","iata":"FBM"}},{"type":"Feature","geometry":{"coordinates":[12.251998,41.804532],"type":"Point"},"properties":{"country":"IT","city":"Rome","icao":"LIRF","name":"Rome–Fiumicino Leonardo da Vinci International Airport","iata":"FCO"}},{"type":"Feature","geometry":{"coordinates":[-61.003201,14.591],"type":"Point"},"properties":{"country":"MQ","city":"Fort-de-France","icao":"TFFF","name":"Martinique Aimé Césaire International Airport","iata":"FDF"}},{"type":"Feature","geometry":{"coordinates":[9.51149,47.671299],"type":"Point"},"properties":{"country":"DE","city":"Friedrichshafen","icao":"EDNY","name":"Bodensee Airport Friedrichshafen","iata":"FDH"}},{"type":"Feature","geometry":{"coordinates":[-4.97796,33.927299],"type":"Point"},"properties":{"country":"MA","city":"Saïss","icao":"GMFF","name":"Fes Saïss International Airport","iata":"FEZ"}},{"type":"Feature","geometry":{"coordinates":[15.4446,-4.38575],"type":"Point"},"properties":{"country":"CD","city":"Kinshasa","icao":"FZAA","name":"Ndjili International Airport","iata":"FIH"}},{"type":"Feature","geometry":{"coordinates":[56.328061,25.108411],"type":"Point"},"properties":{"country":"AE","city":"Fujairah","icao":"OMFJ","name":"Fujairah International Airport","iata":"FJR"}},{"type":"Feature","geometry":{"coordinates":[8.0805,48.7794],"type":"Point"},"properties":{"country":"DE","city":"Rheinmünster","icao":"EDSB","name":"Karlsruhe Baden-Baden Airport","iata":"FKB"}},{"type":"Feature","geometry":{"coordinates":[25.337999,0.481639],"type":"Point"},"properties":{"country":"CD","city":"Kisangani","icao":"FZIC","name":"Bangoka International Airport","iata":"FKI"}},{"type":"Feature","geometry":{"coordinates":[-80.152702,26.072599],"type":"Point"},"properties":{"country":"US","city":"Fort Lauderdale","icao":"KFLL","name":"Fort Lauderdale Hollywood International Airport","iata":"FLL"}},{"type":"Feature","geometry":{"coordinates":[-48.552502,-27.670279],"type":"Point"},"properties":{"country":"BR","city":"Florianópolis","icao":"SBFL","name":"Hercílio Luz International Airport","iata":"FLN"}},{"type":"Feature","geometry":{"coordinates":[11.202822,43.808558],"type":"Point"},"properties":{"country":"IT","city":"Firenze (FI)","icao":"LIRQ","name":"Florence Airport, Peretola","iata":"FLR"}},{"type":"Feature","geometry":{"coordinates":[10.238248,47.988092],"type":"Point"},"properties":{"country":"DE","city":"Memmingen","icao":"EDJA","name":"Memmingen Allgau Airport","iata":"FMM"}},{"type":"Feature","geometry":{"coordinates":[7.688482,52.133816],"type":"Point"},"properties":{"country":"DE","city":"Greven","icao":"EDDG","name":"Münster Osnabrück Airport","iata":"FMO"}},{"type":"Feature","geometry":{"coordinates":[-13.1955,8.61644],"type":"Point"},"properties":{"country":"SL","city":"Freetown (Lungi-Town)","icao":"GFLL","name":"Lungi International Airport","iata":"FNA"}},{"type":"Feature","geometry":{"coordinates":[-16.774613,32.697812],"type":"Point"},"properties":{"country":"PT","city":"Funchal","icao":"LPMA","name":"Cristiano Ronaldo International Airport","iata":"FNC"}},{"type":"Feature","geometry":{"coordinates":[125.669998,39.224098],"type":"Point"},"properties":{"country":"KP","city":"Pyongyang","icao":"ZKPY","name":"Pyongyang Sunan International Airport","iata":"FNJ"}},{"type":"Feature","geometry":{"coordinates":[119.672524,25.929254],"type":"Point"},"properties":{"country":"CN","city":"Fuzhou (Changle)","icao":"ZSFZ","name":"Fuzhou Changle International Airport","iata":"FOC"}},{"type":"Feature","geometry":{"coordinates":[-38.532222,-3.775833],"type":"Point"},"properties":{"country":"BR","city":"Fortaleza","icao":"SBFZ","name":"Pinto Martins International Airport","iata":"FOR"}},{"type":"Feature","geometry":{"coordinates":[-78.695583,26.557996],"type":"Point"},"properties":{"country":"BS","city":"Freeport","icao":"MYGF","name":"Grand Bahama International Airport","iata":"FPO"}},{"type":"Feature","geometry":{"coordinates":[8.55835,50.026706],"type":"Point"},"properties":{"country":"DE","city":"Frankfurt am Main","icao":"EDDF","name":"Frankfurt Main Airport","iata":"FRA"}},{"type":"Feature","geometry":{"coordinates":[27.468826,-21.159183],"type":"Point"},"properties":{"country":"BW","city":"Francistown","icao":"FBPM","name":"Phillip Gaonwe Matante International Airport","iata":"FRW"}},{"type":"Feature","geometry":{"coordinates":[9.097092,41.50185],"type":"Point"},"properties":{"country":"FR","city":"Figari","icao":"LFKF","name":"Figari Sud-Corse Airport","iata":"FSC"}},{"type":"Feature","geometry":{"coordinates":[138.190976,34.795022],"type":"Point"},"properties":{"country":"JP","city":"Makinohara / Shimada","icao":"RJNS","name":"Mount Fuji Shizuoka Airport","iata":"FSZ"}},{"type":"Feature","geometry":{"coordinates":[-72.053949,-50.281997],"type":"Point"},"properties":{"country":"AR","city":"El Calafate","icao":"","name":"El Calafate - Commander Armando Tola International Airport","iata":"FTE"}},{"type":"Feature","geometry":{"coordinates":[-13.8638,28.4527],"type":"Point"},"properties":{"country":"ES","city":"El Matorral","icao":"GCFV","name":"Fuerteventura Airport","iata":"FUE"}},{"type":"Feature","geometry":{"coordinates":[130.45100402832031,33.585899353027344],"type":"Point"},"properties":{"country":"JP","city":"Fukuoka","icao":"RJFF","name":"Fukuoka Airport","iata":"FUK"}},{"type":"Feature","geometry":{"coordinates":[73.152627,-0.692975],"type":"Point"},"properties":{"country":"MV","city":"Gan","icao":"VRMG","name":"Gan International Airport","iata":"GAN"}},{"type":"Feature","geometry":{"coordinates":[91.585226,26.106654],"type":"Point"},"properties":{"country":"IN","city":"Guwahati","icao":"VEGT","name":"Lokpriya Gopinath Bordoloi International Airport","iata":"GAU"}},{"type":"Feature","geometry":{"coordinates":[25.9182,-24.555201],"type":"Point"},"properties":{"country":"BW","city":"Gaborone","icao":"FBSK","name":"Sir Seretse Khama International Airport","iata":"GBE"}},{"type":"Feature","geometry":{"coordinates":[-81.357697,19.292801],"type":"Point"},"properties":{"country":"KY","city":"George Town","icao":"MWCR","name":"Owen Roberts International Airport","iata":"GCM"}},{"type":"Feature","geometry":{"coordinates":[-103.310108,20.523342],"type":"Point"},"properties":{"country":"MX","city":"Guadalajara","icao":"MMGL","name":"Guadalajara International Airport","iata":"GDL"}},{"type":"Feature","geometry":{"coordinates":[18.4662,54.377602],"type":"Point"},"properties":{"country":"PL","city":"Gdańsk","icao":"EPGD","name":"Gdańsk Lech Wałęsa Airport","iata":"GDN"}},{"type":"Feature","geometry":{"coordinates":[-117.533997,47.6199],"type":"Point"},"properties":{"country":"US","city":"Spokane","icao":"KGEG","name":"Spokane International Airport","iata":"GEG"}},{"type":"Feature","geometry":{"coordinates":[-58.254101,6.49855],"type":"Point"},"properties":{"country":"GY","city":"Georgetown","icao":"SYCJ","name":"Cheddi Jagan International Airport","iata":"GEO"}},{"type":"Feature","geometry":{"coordinates":[125.096243,6.057208],"type":"Point"},"properties":{"country":"PH","city":"General Santos","icao":"RPMR","name":"General Santos International Airport","iata":"GES"}},{"type":"Feature","geometry":{"coordinates":[25.522871,45.70558],"type":"Point"},"properties":{"country":"RO","city":"Brașov (Ghimbav)","icao":"LRBV","name":"Brașov-Ghimbav International Airport","iata":"GHV"}},{"type":"Feature","geometry":{"coordinates":[-5.34978,36.151679],"type":"Point"},"properties":{"country":"GI","city":"Gibraltar","icao":"LXGB","name":"Gibraltar Airport","iata":"GIB"}},{"type":"Feature","geometry":{"coordinates":[-43.250557,-22.809999],"type":"Point"},"properties":{"country":"BR","city":"Rio De Janeiro","icao":"SBGL","name":"Rio Galeão – Tom Jobim International Airport","iata":"GIG"}},{"type":"Feature","geometry":{"coordinates":[5.873652,36.794125],"type":"Point"},"properties":{"country":"DZ","city":"Tahir","icao":"DAAV","name":"Jijel Ferhat Abbas Airport","iata":"GJL"}},{"type":"Feature","geometry":{"coordinates":[-4.43306,55.871899],"type":"Point"},"properties":{"country":"GB","city":"Glasgow","icao":"EGPF","name":"Glasgow Airport","iata":"GLA"}},{"type":"Feature","geometry":{"coordinates":[126.791,37.5583],"type":"Point"},"properties":{"country":"KR","city":"Seoul","icao":"RKSS","name":"Gimpo International Airport","iata":"GMP"}},{"type":"Feature","geometry":{"coordinates":[-61.785302,12.003996],"type":"Point"},"properties":{"country":"GD","city":"Saint George\u0027s","icao":"TGPY","name":"Maurice Bishop International Airport","iata":"GND"}},{"type":"Feature","geometry":{"coordinates":[46.320383,40.738692],"type":"Point"},"properties":{"country":"AZ","city":"Ganja","icao":"UBBG","name":"Ganja International Airport","iata":"GNJ"}},{"type":"Feature","geometry":{"coordinates":[38.895592,37.445663],"type":"Point"},"properties":{"country":"TR","city":"Şanlıurfa","icao":"LTCS","name":"Şanlıurfa GAP Airport","iata":"GNY"}},{"type":"Feature","geometry":{"coordinates":[8.840732,44.412039],"type":"Point"},"properties":{"country":"IT","city":"Genova (GE)","icao":"LIMJ","name":"Genoa Cristoforo Colombo Airport","iata":"GOA"}},{"type":"Feature","geometry":{"coordinates":[-51.67914,64.191066],"type":"Point"},"properties":{"country":"GL","city":"Nuuk","icao":"BGGH","name":"Nuuk International Airport","iata":"GOH"}},{"type":"Feature","geometry":{"coordinates":[73.833328,15.380062],"type":"Point"},"properties":{"country":"IN","city":"Vasco da Gama","icao":"VOGO","name":"Goa Dabolim International Airport","iata":"GOI"}},{"type":"Feature","geometry":{"coordinates":[43.785152,56.227351],"type":"Point"},"properties":{"country":"RU","city":"Nizhny Novgorod","icao":"UWGG","name":"Nizhny Novgorod / Strigino International Airport","iata":"GOJ"}},{"type":"Feature","geometry":{"coordinates":[29.238037,-1.666758],"type":"Point"},"properties":{"country":"CD","city":"Goma","icao":"FZNA","name":"Goma International Airport","iata":"GOM"}},{"type":"Feature","geometry":{"coordinates":[12.2798,57.6628],"type":"Point"},"properties":{"country":"SE","city":"Göteborg","icao":"ESGG","name":"Göteborg Landvetter Airport","iata":"GOT"}},{"type":"Feature","geometry":{"coordinates":[13.372129,9.334785],"type":"Point"},"properties":{"country":"CM","city":"Garoua","icao":"FKKR","name":"Garoua International Airport","iata":"GOU"}},{"type":"Feature","geometry":{"coordinates":[73.860625,15.744257],"type":"Point"},"properties":{"country":"IN","city":"Mopa","icao":"VOGA","name":"Manohar International Airport","iata":"GOX"}},{"type":"Feature","geometry":{"coordinates":[22.378902,-34.0056],"type":"Point"},"properties":{"country":"ZA","city":"George","icao":"FAGG","name":"George Airport","iata":"GRJ"}},{"type":"Feature","geometry":{"coordinates":[2.761774,41.904639],"type":"Point"},"properties":{"country":"ES","city":"Girona","icao":"LEGE","name":"Girona-Costa Brava Airport","iata":"GRO"}},{"type":"Feature","geometry":{"coordinates":[6.577652,53.119107],"type":"Point"},"properties":{"country":"NL","city":"Groningen","icao":"EHGG","name":"Groningen Airport Eelde","iata":"GRQ"}},{"type":"Feature","geometry":{"coordinates":[-85.522797,42.880798],"type":"Point"},"properties":{"country":"US","city":"Grand Rapids","icao":"KGRR","name":"Gerald R. Ford International Airport","iata":"GRR"}},{"type":"Feature","geometry":{"coordinates":[-46.469954,-23.431274],"type":"Point"},"properties":{"country":"BR","city":"São Paulo","icao":"SBGR","name":"São Paulo/Guarulhos–Governor André Franco Montoro International Airport","iata":"GRU"}},{"type":"Feature","geometry":{"coordinates":[45.699772,43.388106],"type":"Point"},"properties":{"country":"RU","city":"Grozny","icao":"URMG","name":"Akhmat Kadyrov Grozny International Airport","iata":"GRV"}},{"type":"Feature","geometry":{"coordinates":[15.4396,46.9911],"type":"Point"},"properties":{"country":"AT","city":"Feldkirchen bei Graz","icao":"LOWG","name":"Graz Airport","iata":"GRZ"}},{"type":"Feature","geometry":{"coordinates":[55.902353,26.754639],"type":"Point"},"properties":{"country":"IR","city":"Qeshm(Dayrestan)","icao":"OIKQ","name":"Qeshm International Airport","iata":"GSM"}},{"type":"Feature","geometry":{"coordinates":[-79.937262,36.09937],"type":"Point"},"properties":{"country":"US","city":"Greensboro","icao":"KGSO","name":"Piedmont Triad International Airport","iata":"GSO"}},{"type":"Feature","geometry":{"coordinates":[46.171111,51.712778],"type":"Point"},"properties":{"country":"RU","city":"Saratov","icao":"UWSG","name":"Gagarin International Airport","iata":"GSV"}},{"type":"Feature","geometry":{"coordinates":[-90.527515,14.582896],"type":"Point"},"properties":{"country":"GT","city":"Guatemala City","icao":"MGGT","name":"La Aurora International Airport","iata":"GUA"}},{"type":"Feature","geometry":{"coordinates":[144.797282,13.485],"type":"Point"},"properties":{"country":"GU","city":"Hagåtña","icao":"PGUM","name":"Antonio B. Won Pat International Airport","iata":"GUM"}},{"type":"Feature","geometry":{"coordinates":[51.820343,47.121318],"type":"Point"},"properties":{"country":"KZ","city":"Atyrau","icao":"UATG","name":"Atyrau International Airport","iata":"GUW"}},{"type":"Feature","geometry":{"coordinates":[6.10895,46.238098],"type":"Point"},"properties":{"country":"CH","city":"Geneva","icao":"LSGG","name":"Geneva International Airport","iata":"GVA"}},{"type":"Feature","geometry":{"coordinates":[62.498822,25.296733],"type":"Point"},"properties":{"country":"PK","city":"Gurandani","icao":"OPGW","name":"New Gwadar International Airport","iata":"GWD"}},{"type":"Feature","geometry":{"coordinates":[48.788146,15.965887],"type":"Point"},"properties":{"country":"YE","city":"Seiyun","icao":"OYSY","name":"Seiyun Hadhramaut International Airport","iata":"GXF"}},{"type":"Feature","geometry":{"coordinates":[50.050931,40.47278],"type":"Point"},"properties":{"country":"AZ","city":"Baku","icao":"UBBB","name":"Heydar Aliyev International Airport","iata":"GYD"}},{"type":"Feature","geometry":{"coordinates":[-79.883598,-2.15742],"type":"Point"},"properties":{"country":"EC","city":"Guayaquil","icao":"SEGU","name":"José Joaquín de Olmedo International Airport","iata":"GYE"}},{"type":"Feature","geometry":{"coordinates":[-49.220699,-16.632],"type":"Point"},"properties":{"country":"BR","city":"Goiânia","icao":"SBGO","name":"Santa Genoveva International Airport","iata":"GYN"}},{"type":"Feature","geometry":{"coordinates":[37.478699,36.947201],"type":"Point"},"properties":{"country":"TR","city":"Gaziantep","icao":"LTAJ","name":"Gaziantep Oğuzeli International Airport","iata":"GZT"}},{"type":"Feature","geometry":{"coordinates":[43.2719,-11.5337],"type":"Point"},"properties":{"country":"KM","city":"Moroni","icao":"FMCH","name":"Prince Said Ibrahim International Airport","iata":"HAH"}},{"type":"Feature","geometry":{"coordinates":[9.68508,52.461102],"type":"Point"},"properties":{"country":"DE","city":"Hannover","icao":"EDDV","name":"Hannover Airport","iata":"HAJ"}},{"type":"Feature","geometry":{"coordinates":[110.459,19.9349],"type":"Point"},"properties":{"country":"CN","city":"Haikou (Meilan)","icao":"ZJHK","name":"Haikou Meilan International Airport","iata":"HAK"}},{"type":"Feature","geometry":{"coordinates":[9.98823,53.630402],"type":"Point"},"properties":{"country":"DE","city":"Hamburg","icao":"EDDH","name":"Hamburg Helmut Schmidt Airport","iata":"HAM"}},{"type":"Feature","geometry":{"coordinates":[105.806999,21.221201],"type":"Point"},"properties":{"country":"VN","city":"Hanoi (Soc Son)","icao":"VVNB","name":"Noi Bai International Airport","iata":"HAN"}},{"type":"Feature","geometry":{"coordinates":[73.167072,6.743235],"type":"Point"},"properties":{"country":"MV","city":"Haa Dhaalu Atoll","icao":"VRMH","name":"Hanimaadhoo International Airport","iata":"HAQ"}},{"type":"Feature","geometry":{"coordinates":[41.686298,27.437901],"type":"Point"},"properties":{"country":"SA","city":"Hail","icao":"OEHL","name":"Hail International Airport","iata":"HAS"}},{"type":"Feature","geometry":{"coordinates":[-82.409103393554688,22.989200592041016],"type":"Point"},"properties":{"country":"CU","city":"Havana","icao":"MUHA","name":"José Martí International Airport","iata":"HAV"}},{"type":"Feature","geometry":{"coordinates":[147.513022,-42.837032],"type":"Point"},"properties":{"country":"AU","city":"Hobart (Cambridge)","icao":"YMHB","name":"Hobart International Airport","iata":"HBA"}},{"type":"Feature","geometry":{"coordinates":[29.696437,30.93249],"type":"Point"},"properties":{"country":"EG","city":"Alexandria","icao":"HEAX","name":"Alexandria International Airport","iata":"HBE"}},{"type":"Feature","geometry":{"coordinates":[100.392998,6.93321],"type":"Point"},"properties":{"country":"TH","city":"Hat Yai","icao":"VTSS","name":"Hat Yai International Airport","iata":"HDY"}},{"type":"Feature","geometry":{"coordinates":[62.228298,34.209999],"type":"Point"},"properties":{"country":"AF","city":"Guzara","icao":"OAHR","name":"Herat - Khwaja Abdullah Ansari International Airport","iata":"HEA"}},{"type":"Feature","geometry":{"coordinates":[24.963341,60.318363],"type":"Point"},"properties":{"country":"FI","city":"Helsinki (Vantaa)","icao":"EFHK","name":"Helsinki Vantaa Airport","iata":"HEL"}},{"type":"Feature","geometry":{"coordinates":[25.1803,35.339699],"type":"Point"},"properties":{"country":"GR","city":"Heraklion","icao":"LGIR","name":"Heraklion International Nikos Kazantzakis Airport","iata":"HER"}},{"type":"Feature","geometry":{"coordinates":[111.824598,40.849658],"type":"Point"},"properties":{"country":"CN","city":"Hohhot","icao":"ZBHH","name":"Hohhot Baita International Airport","iata":"HET"}},{"type":"Feature","geometry":{"coordinates":[116.9769,31.98779],"type":"Point"},"properties":{"country":"CN","city":"Hefei","icao":"ZSOF","name":"Hefei Xinqiao International Airport","iata":"HFE"}},{"type":"Feature","geometry":{"coordinates":[44.083469,9.514082],"type":"Point"},"properties":{"country":"SO","city":"Hargeisa","icao":"HCMH","name":"Egal International Airport","iata":"HGA"}},{"type":"Feature","geometry":{"coordinates":[120.428865,30.23609],"type":"Point"},"properties":{"country":"CN","city":"Hangzhou","icao":"ZSHC","name":"Hangzhou Xiaoshan International Airport","iata":"HGH"}},{"type":"Feature","geometry":{"coordinates":[7.261734,49.946353],"type":"Point"},"properties":{"country":"DE","city":"Frankfurt am Main (Lautzenhausen)","icao":"EDFH","name":"Frankfurt-Hahn Airport","iata":"HHN"}},{"type":"Feature","geometry":{"coordinates":[119.126657,33.792712],"type":"Point"},"properties":{"country":"CN","city":"Huai\u0027an","icao":"ZSSH","name":"Huai\u0027an Lianshui Airport","iata":"HIA"}},{"type":"Feature","geometry":{"coordinates":[132.919006,34.4361],"type":"Point"},"properties":{"country":"JP","city":"Hiroshima","icao":"RJOA","name":"Hiroshima Airport","iata":"HIJ"}},{"type":"Feature","geometry":{"coordinates":[160.054993,-9.428],"type":"Point"},"properties":{"country":"SB","city":"Honiara","icao":"AGGH","name":"Honiara International Airport","iata":"HIR"}},{"type":"Feature","geometry":{"coordinates":[140.822006,41.77],"type":"Point"},"properties":{"country":"JP","city":"Hakodate","icao":"RJCH","name":"Hakodate Airport","iata":"HKD"}},{"type":"Feature","geometry":{"coordinates":[113.914862,22.31184],"type":"Point"},"properties":{"country":"HK","city":"Hong Kong","icao":"VHHH","name":"Hong Kong International Airport","iata":"HKG"}},{"type":"Feature","geometry":{"coordinates":[98.3174,8.113257],"type":"Point"},"properties":{"country":"TH","city":"Phuket","icao":"VTSP","name":"Phuket International Airport","iata":"HKT"}},{"type":"Feature","geometry":{"coordinates":[27.926642,-25.938964],"type":"Point"},"properties":{"country":"ZA","city":"Johannesburg","icao":"FALA","name":"Lanseria International Airport","iata":"HLA"}},{"type":"Feature","geometry":{"coordinates":[119.822301,49.208616],"type":"Point"},"properties":{"country":"CN","city":"Hailar","icao":"ZBLA","name":"Hulunbuir Hailar Airport","iata":"HLD"}},{"type":"Feature","geometry":{"coordinates":[106.890318,-6.266989],"type":"Point"},"properties":{"country":"ID","city":"Jakarta","icao":"WIHH","name":"Halim Perdanakusuma International Airport","iata":"HLP"}},{"type":"Feature","geometry":{"coordinates":[31.743017,26.342515],"type":"Point"},"properties":{"country":"EG","city":"Suhaj","icao":"HESG","name":"Suhaj International Airport","iata":"HMB"}},{"type":"Feature","geometry":{"coordinates":[-111.053015,29.092811],"type":"Point"},"properties":{"country":"MX","city":"Hermosillo","icao":"MMHO","name":"General Ignacio L. Pesqueira International Airport","iata":"HMO"}},{"type":"Feature","geometry":{"coordinates":[139.786958,35.549678],"type":"Point"},"properties":{"country":"JP","city":"Tokyo","icao":"RJTT","name":"Tokyo Haneda International Airport","iata":"HND"}},{"type":"Feature","geometry":{"coordinates":[-157.92567,21.318387],"type":"Point"},"properties":{"country":"US","city":"Honolulu, Oahu","icao":"PHNL","name":"Daniel K. Inouye International Airport","iata":"HNL"}},{"type":"Feature","geometry":{"coordinates":[49.485199,25.285299],"type":"Point"},"properties":{"country":"SA","city":"Hofuf","icao":"OEAH","name":"Al-Ahsa International Airport","iata":"HOF"}},{"type":"Feature","geometry":{"coordinates":[-76.315526,20.785148],"type":"Point"},"properties":{"country":"CU","city":"Holguin","icao":"MUHG","name":"Frank Pais International Airport","iata":"HOG"}},{"type":"Feature","geometry":{"coordinates":[-95.276812,29.645336],"type":"Point"},"properties":{"country":"US","city":"Houston","icao":"KHOU","name":"William P. Hobby Airport","iata":"HOU"}},{"type":"Feature","geometry":{"coordinates":[106.724315,20.817428],"type":"Point"},"properties":{"country":"VN","city":"Haiphong (Hai An)","icao":"VVCI","name":"Cat Bi International Airport","iata":"HPH"}},{"type":"Feature","geometry":{"coordinates":[126.25,45.623402],"type":"Point"},"properties":{"country":"CN","city":"Harbin","icao":"ZYHB","name":"Harbin Taiping International Airport","iata":"HRB"}},{"type":"Feature","geometry":{"coordinates":[31.0928,-17.931801],"type":"Point"},"properties":{"country":"ZW","city":"Harare","icao":"FVRG","name":"Robert Gabriel Mugabe International Airport","iata":"HRE"}},{"type":"Feature","geometry":{"coordinates":[33.796692,27.176776],"type":"Point"},"properties":{"country":"EG","city":"Hurghada","icao":"HEGN","name":"Hurghada International Airport","iata":"HRG"}},{"type":"Feature","geometry":{"coordinates":[81.124163,6.283878],"type":"Point"},"properties":{"country":"LK","city":"Mattala","icao":"VCRI","name":"Mattala Rajapaksa International Airport","iata":"HRI"}},{"type":"Feature","geometry":{"coordinates":[68.550352,43.311087],"type":"Point"},"properties":{"country":"KZ","city":"Turkıstan","icao":"UAIT","name":"Hazrat Sultan International Airport","iata":"HSA"}},{"type":"Feature","geometry":{"coordinates":[130.302002,33.1497],"type":"Point"},"properties":{"country":"JP","city":"Saga","icao":"RJFS","name":"Kyushu Saga International Airport","iata":"HSG"}},{"type":"Feature","geometry":{"coordinates":[122.362307,29.933874],"type":"Point"},"properties":{"country":"CN","city":"Zhoushan","icao":"ZSZS","name":"Zhoushan Putuoshan International Airport","iata":"HSN"}},{"type":"Feature","geometry":{"coordinates":[71.039391,22.378824],"type":"Point"},"properties":{"country":"IN","city":"Rajkot","icao":"VAHS","name":"Rajkot International Airport","iata":"HSR"}},{"type":"Feature","geometry":{"coordinates":[75.74142,29.186065],"type":"Point"},"properties":{"country":"IN","city":"Hisar","icao":"VIHR","name":"Maharaja Agrasen International Airport","iata":"HSS"}},{"type":"Feature","geometry":{"coordinates":[113.305839,52.024841],"type":"Point"},"properties":{"country":"RU","city":"Chita","icao":"UIAA","name":"Chita-Kadala International Airport","iata":"HTA"}},{"type":"Feature","geometry":{"coordinates":[121.617991,24.023163],"type":"Point"},"properties":{"country":"TW","city":"Hualien City","icao":"RCYU","name":"Hualien Chiashan Airport","iata":"HUN"}},{"type":"Feature","geometry":{"coordinates":[-96.260456,15.775437],"type":"Point"},"properties":{"country":"MX","city":"Huatulco","icao":"MMBT","name":"Bahías de Huatulco International Airport","iata":"HUX"}},{"type":"Feature","geometry":{"coordinates":[75.629799,30.748501],"type":"Point"},"properties":{"country":"IN","city":"Halwara","icao":"VIHX","name":"Halwara International Airport","iata":"HWR"}},{"type":"Feature","geometry":{"coordinates":[78.429855,17.231318],"type":"Point"},"properties":{"country":"IN","city":"Hyderabad","icao":"VOHS","name":"Rajiv Gandhi International Airport","iata":"HYD"}},{"type":"Feature","geometry":{"coordinates":[-77.455803,38.9445],"type":"Point"},"properties":{"country":"US","city":"Dulles","icao":"KIAD","name":"Washington Dulles International Airport","iata":"IAD"}},{"type":"Feature","geometry":{"coordinates":[-95.3414,29.9844],"type":"Point"},"properties":{"country":"US","city":"Houston","icao":"KIAH","name":"George Bush Intercontinental Airport","iata":"IAH"}},{"type":"Feature","geometry":{"coordinates":[40.157398,57.560699],"type":"Point"},"properties":{"country":"RU","city":"Tunoshna","icao":"UUDL","name":"Golden Ring Yaroslavl International Airport","iata":"IAR"}},{"type":"Feature","geometry":{"coordinates":[27.621431,47.179633],"type":"Point"},"properties":{"country":"RO","city":"Iaşi","icao":"LRIA","name":"Iaşi International Airport","iata":"IAS"}},{"type":"Feature","geometry":{"coordinates":[140.414434,36.181456],"type":"Point"},"properties":{"country":"JP","city":"Omitama","icao":"RJAH","name":"Ibaraki Airport","iata":"IBR"}},{"type":"Feature","geometry":{"coordinates":[1.37312,38.872898],"type":"Point"},"properties":{"country":"ES","city":"Ibiza (Eivissa)","icao":"LEIB","name":"Ibiza Airport","iata":"IBZ"}},{"type":"Feature","geometry":{"coordinates":[126.450996,37.469101],"type":"Point"},"properties":{"country":"KR","city":"Seoul","icao":"RKSI","name":"Incheon International Airport","iata":"ICN"}},{"type":"Feature","geometry":{"coordinates":[75.80051,22.721404],"type":"Point"},"properties":{"country":"IN","city":"Indore","icao":"VAID","name":"Devi Ahilya Bai Holkar International Airport","iata":"IDR"}},{"type":"Feature","geometry":{"coordinates":[51.883877,32.755142],"type":"Point"},"properties":{"country":"IR","city":"Isfahan","icao":"OIFM","name":"Isfahan Shahid Beheshti International Airport","iata":"IFN"}},{"type":"Feature","geometry":{"coordinates":[-54.489444,-25.594167],"type":"Point"},"properties":{"country":"BR","city":"Foz do Iguaçu","icao":"SBFI","name":"Cataratas International Airport","iata":"IGU"}},{"type":"Feature","geometry":{"coordinates":[51.152198791503906,35.416099548339844],"type":"Point"},"properties":{"country":"IR","city":"Tehran","icao":"OIIE","name":"Imam Khomeini International Airport","iata":"IKA"}},{"type":"Feature","geometry":{"coordinates":[104.395563,52.266707],"type":"Point"},"properties":{"country":"RU","city":"Irkutsk","icao":"UIII","name":"Irkutsk International Airport","iata":"IKT"}},{"type":"Feature","geometry":{"coordinates":[76.701181,42.585584],"type":"Point"},"properties":{"country":"KG","city":"Tamchy","icao":"UCFL","name":"Issyk-Kul International Airport","iata":"IKU"}},{"type":"Feature","geometry":{"coordinates":[122.493358,10.833017],"type":"Point"},"properties":{"country":"PH","city":"Cabatuan","icao":"RPVI","name":"Iloilo International Airport","iata":"ILO"}},{"type":"Feature","geometry":{"coordinates":[4.49392,8.44021],"type":"Point"},"properties":{"country":"NG","city":"Ilorin/Ogbomosho","icao":"DNIL","name":"General Tunde Idiagbon International Airport","iata":"ILR"}},{"type":"Feature","geometry":{"coordinates":[93.896698,24.76],"type":"Point"},"properties":{"country":"IN","city":"Imphal","icao":"VEIM","name":"Bir Tikendrajit International Airport","iata":"IMF"}},{"type":"Feature","geometry":{"coordinates":[106.393214,38.322758],"type":"Point"},"properties":{"country":"CN","city":"Yinchuan","icao":"ZLIC","name":"Yinchuan Hedong International Airport","iata":"INC"}},{"type":"Feature","geometry":{"coordinates":[-86.294403,39.7173],"type":"Point"},"properties":{"country":"US","city":"Indianapolis","icao":"KIND","name":"Indianapolis International Airport","iata":"IND"}},{"type":"Feature","geometry":{"coordinates":[21.856242,43.336538],"type":"Point"},"properties":{"country":"RS","city":"Niš","icao":"LYNI","name":"Niš Constantine the Great Airport","iata":"INI"}},{"type":"Feature","geometry":{"coordinates":[11.344,47.260201],"type":"Point"},"properties":{"country":"AT","city":"Innsbruck","icao":"LOWI","name":"Innsbruck Airport","iata":"INN"}},{"type":"Feature","geometry":{"coordinates":[-4.623871,54.083081],"type":"Point"},"properties":{"country":"IM","city":"Castletown","icao":"EGNS","name":"Isle of Man Airport","iata":"IOM"}},{"type":"Feature","geometry":{"coordinates":[-109.421027,-27.165411],"type":"Point"},"properties":{"country":"CL","city":"Isla De Pascua","icao":"SCIP","name":"Mataveri International Airport","iata":"IPC"}},{"type":"Feature","geometry":{"coordinates":[101.091643,4.56733],"type":"Point"},"properties":{"country":"MY","city":"Ipoh","icao":"WMKI","name":"Sultan Azlan Shah Airport","iata":"IPH"}},{"type":"Feature","geometry":{"coordinates":[-70.181373,-20.536273],"type":"Point"},"properties":{"country":"CL","city":"Iquique","icao":"SCDA","name":"Diego Aracena International Airport","iata":"IQQ"}},{"type":"Feature","geometry":{"coordinates":[-73.3088,-3.78474],"type":"Point"},"properties":{"country":"PE","city":"Iquitos","icao":"SPQT","name":"Coronel FAP Francisco Secada Vignetta International Airport","iata":"IQT"}},{"type":"Feature","geometry":{"coordinates":[72.82566,33.549],"type":"Point"},"properties":{"country":"PK","city":"Attock","icao":"OPIS","name":"Islamabad International Airport","iata":"ISB"}},{"type":"Feature","geometry":{"coordinates":[73.912903,20.119101],"type":"Point"},"properties":{"country":"IN","city":"Nashik","icao":"VAOZ","name":"Nashik International Airport","iata":"ISK"}},{"type":"Feature","geometry":{"coordinates":[28.823714,40.971913],"type":"Point"},"properties":{"country":"TR","city":"Istanbul(Bakırköy)","icao":"LTBA","name":"İstanbul Atatürk Airport","iata":"ISL"}},{"type":"Feature","geometry":{"coordinates":[28.732136,41.274874],"type":"Point"},"properties":{"country":"TR","city":"Istanbul","icao":"LTFM","name":"İstanbul Airport","iata":"IST"}},{"type":"Feature","geometry":{"coordinates":[135.440829,34.780853],"type":"Point"},"properties":{"country":"JP","city":"Osaka","icao":"RJOO","name":"Osaka Itami International Airport","iata":"ITM"}},{"type":"Feature","geometry":{"coordinates":[27.4053,68.6073],"type":"Point"},"properties":{"country":"FI","city":"Ivalo","icao":"EFIV","name":"Ivalo Airport","iata":"IVL"}},{"type":"Feature","geometry":{"coordinates":[88.328598,26.6812],"type":"Point"},"properties":{"country":"IN","city":"Siliguri","icao":"VEBD","name":"Bagdogra Airport","iata":"IXB"}},{"type":"Feature","geometry":{"coordinates":[76.788498,30.6735],"type":"Point"},"properties":{"country":"IN","city":"Chandigarh","icao":"VICG","name":"Shaheed Bhagat Singh International Airport","iata":"IXC"}},{"type":"Feature","geometry":{"coordinates":[74.886812,12.95471],"type":"Point"},"properties":{"country":"IN","city":"Mangaluru","icao":"VOML","name":"Mangaluru International Airport","iata":"IXE"}},{"type":"Feature","geometry":{"coordinates":[92.72902,11.640194],"type":"Point"},"properties":{"country":"IN","city":"Port Blair","icao":"VOPB","name":"Veer Savarkar International Airport / INS Utkrosh","iata":"IXZ"}},{"type":"Feature","geometry":{"coordinates":[80.070099,9.79233],"type":"Point"},"properties":{"country":"LK","city":"Jaffna","icao":"VCCJ","name":"Jaffna International Airport","iata":"JAF"}},{"type":"Feature","geometry":{"coordinates":[75.812202,26.8242],"type":"Point"},"properties":{"country":"IN","city":"Jaipur","icao":"VIJP","name":"Jaipur International Airport","iata":"JAI"}},{"type":"Feature","geometry":{"coordinates":[-81.687813,30.492469],"type":"Point"},"properties":{"country":"US","city":"Jacksonville","icao":"KJAX","name":"Jacksonville International Airport","iata":"JAX"}},{"type":"Feature","geometry":{"coordinates":[14.42832,48.948171],"type":"Point"},"properties":{"country":"CZ","city":"České Budějovice","icao":"LKCS","name":"České Budějovice South Bohemian Airport","iata":"JCL"}},{"type":"Feature","geometry":{"coordinates":[39.157436,21.680241],"type":"Point"},"properties":{"country":"SA","city":"Jeddah","icao":"OEJN","name":"King Abdulaziz International Airport","iata":"JED"}},{"type":"Feature","geometry":{"coordinates":[-73.779317,40.639447],"type":"Point"},